{
"type": "FeatureCollection",
"name": "hk2020",
"features": [
{ "type": "Feature", "id": "1102", "properties": { "date": "2023-03-08", "address": "Florida Mansion, Middle Floor, Flat C", "price": 34000, "changes": "--", "saleable_area(ft^2)": "1,023", "unit_rate": 33, "district": "Wan Chai District", "Tower": null, "Flat": "C", "Phase": null, "Block": null, "Rental": true, "Public Housing": false, "floor": 13.0, "latitude": 22.28222855, "longitude": 114.1854109264151 }, "geometry": { "type": "Point", "coordinates": [ 114.185410926415102, 22.28222855 ] } },
{ "type": "Feature", "id": "1104", "properties": { "date": "2023-03-08", "address": "Park Towers, Tower 2, 36/F, Flat D", "price": 20680000, "changes": "--", "saleable_area(ft^2)": "919", "unit_rate": 22496, "district": "Wan Chai District", "Tower": "2", "Flat": "D", "Phase": null, "Block": null, "Rental": false, "Public Housing": false, "floor": 36.0, "latitude": 22.28257685, "longitude": 114.1916623280402 }, "geometry": { "type": "Point", "coordinates": [ 114.191662328040195, 22.28257685 ] } },
{ "type": "Feature", "id": "1108", "properties": { "date": "2023-03-07", "address": "Park Haven, 22/F, Flat H", "price": 4500000, "changes": "--", "saleable_area(ft^2)": "427", "unit_rate": 10530, "district": "Wan Chai District", "Tower": null, "Flat": "H", "Phase": null, "Block": null, "Rental": false, "Public Housing": false, "floor": 22.0, "latitude": 22.2777189, "longitude": 114.1871914160196 }, "geometry": { "type": "Point", "coordinates": [ 114.187191416019601, 22.2777189 ] } },
{ "type": "Feature", "id": "1113", "properties": { "date": "2023-03-06", "address": "The Warren, Upper Floor, Flat B", "price": 21000, "changes": "--", "saleable_area(ft^2)": "383", "unit_rate": 55, "district": "Wan Chai District", "Tower": null, "Flat": "B", "Phase": null, "Block": null, "Rental": true, "Public Housing": false, "floor": 22.0, "latitude": 22.2783989, "longitude": 114.1914292390064 }, "geometry": { "type": "Point", "coordinates": [ 114.191429239006396, 22.2783989 ] } },
{ "type": "Feature", "id": "1116", "properties": { "date": "2023-03-06", "address": "Po Foo Building, 7/F, Flat L", "price": 4200000, "changes": "--", "saleable_area(ft^2)": "358", "unit_rate": 11732, "district": "Wan Chai District", "Tower": null, "Flat": "L", "Phase": null, "Block": null, "Rental": false, "Public Housing": false, "floor": 7.0, "latitude": 22.27883265, "longitude": 114.18345612797393 }, "geometry": { "type": "Point", "coordinates": [ 114.183456127973926, 22.27883265 ] } },
{ "type": "Feature", "id": "1118", "properties": { "date": "2023-03-05", "address": "The Grandeur, Upper Floor, Flat C", "price": 18000, "changes": "--", "saleable_area(ft^2)": "391", "unit_rate": 46, "district": "Wan Chai District", "Tower": null, "Flat": "C", "Phase": null, "Block": null, "Rental": true, "Public Housing": false, "floor": 22.0, "latitude": 22.2791836, "longitude": 114.18523275237609 }, "geometry": { "type": "Point", "coordinates": [ 114.185232752376095, 22.2791836 ] } },
{ "type": "Feature", "id": "1124", "properties": { "date": "2023-03-03", "address": "Trillion Court, 24/F, Flat A", "price": 16800000, "changes": "--", "saleable_area(ft^2)": "816", "unit_rate": 20588, "district": "Wan Chai District", "Tower": null, "Flat": "A", "Phase": null, "Block": null, "Rental": false, "Public Housing": false, "floor": 24.0, "latitude": 22.2818995, "longitude": 114.1926300169964 }, "geometry": { "type": "Point", "coordinates": [ 114.192630016996404, 22.2818995 ] } },
{ "type": "Feature", "id": "1126", "properties": { "date": "2023-03-03", "address": "Oi Kwan Court, 19/F, Flat A", "price": 5000000, "changes": "163%", "saleable_area(ft^2)": "384", "unit_rate": 13021, "district": "Wan Chai District", "Tower": null, "Flat": "A", "Phase": null, "Block": null, "Rental": false, "Public Housing": false, "floor": 19.0, "latitude": 22.27592205, "longitude": 114.19363531137492 }, "geometry": { "type": "Point", "coordinates": [ 114.193635311374919, 22.27592205 ] } },
{ "type": "Feature", "id": "1131", "properties": { "date": "2023-03-02", "address": "Tai Hang Terrace, Block B, Lower Floor, Flat 9", "price": 10780000, "changes": "--", "saleable_area(ft^2)": "576", "unit_rate": 18715, "district": "Wan Chai District", "Tower": null, "Flat": "9", "Phase": null, "Block": "B", "Rental": false, "Public Housing": false, "floor": 7.0, "latitude": 22.2742121, "longitude": 114.19397553810032 }, "geometry": { "type": "Point", "coordinates": [ 114.193975538100318, 22.2742121 ] } },
{ "type": "Feature", "id": "1133", "properties": { "date": "2023-03-02", "address": "Illumination Terrace, Block 2, 18/F, Flat G", "price": 10000000, "changes": "--", "saleable_area(ft^2)": "568", "unit_rate": 17606, "district": "Wan Chai District", "Tower": null, "Flat": "G", "Phase": null, "Block": "2", "Rental": false, "Public Housing": false, "floor": 18.0, "latitude": 22.277071, "longitude": 114.1936099 }, "geometry": { "type": "Point", "coordinates": [ 114.1936099, 22.277071 ] } },
{ "type": "Feature", "id": "1135", "properties": { "date": "2023-03-02", "address": "Island Building, 9/F, Flat F", "price": 4180000, "changes": "--", "saleable_area(ft^2)": "341", "unit_rate": 12258, "district": "Wan Chai District", "Tower": null, "Flat": "F", "Phase": null, "Block": null, "Rental": false, "Public Housing": false, "floor": 9.0, "latitude": 22.27974225, "longitude": 114.18159919540815 }, "geometry": { "type": "Point", "coordinates": [ 114.181599195408154, 22.27974225 ] } },
{ "type": "Feature", "id": "1137", "properties": { "date": "2023-03-01", "address": "Viking Garden, Block A, Upper Floor, Flat 4", "price": 18000, "changes": "--", "saleable_area(ft^2)": "452", "unit_rate": 40, "district": "Wan Chai District", "Tower": null, "Flat": "4", "Phase": null, "Block": "A", "Rental": true, "Public Housing": false, "floor": 22.0, "latitude": 22.2839138, "longitude": 114.19142878615204 }, "geometry": { "type": "Point", "coordinates": [ 114.191428786152045, 22.2839138 ] } },
{ "type": "Feature", "id": "1140", "properties": { "date": "2023-03-01", "address": "Kam Kee Building, Middle Floor, Flat A", "price": 13500, "changes": "--", "saleable_area(ft^2)": "403", "unit_rate": 33, "district": "Wan Chai District", "Tower": null, "Flat": "A", "Phase": null, "Block": null, "Rental": true, "Public Housing": false, "floor": 13.0, "latitude": 22.28427315, "longitude": 114.19184655363767 }, "geometry": { "type": "Point", "coordinates": [ 114.191846553637674, 22.28427315 ] } },
{ "type": "Feature", "id": "1142", "properties": { "date": "2023-03-01", "address": "Serenade, Tower 1, Middle Floor, Flat A", "price": 39800, "changes": "--", "saleable_area(ft^2)": "788", "unit_rate": 51, "district": "Wan Chai District", "Tower": "1", "Flat": "A", "Phase": null, "Block": null, "Rental": true, "Public Housing": false, "floor": 13.0, "latitude": 22.27665605, "longitude": 114.19543991171612 }, "geometry": { "type": "Point", "coordinates": [ 114.195439911716122, 22.27665605 ] } },
{ "type": "Feature", "id": "1144", "properties": { "date": "2023-03-01", "address": "Viking Garden, Block A, Middle Floor, Flat 5", "price": 14000, "changes": "--", "saleable_area(ft^2)": "422", "unit_rate": 33, "district": "Wan Chai District", "Tower": null, "Flat": "5", "Phase": null, "Block": "A", "Rental": true, "Public Housing": false, "floor": 13.0, "latitude": 22.2839138, "longitude": 114.19142878615204 }, "geometry": { "type": "Point", "coordinates": [ 114.191428786152045, 22.2839138 ] } },
{ "type": "Feature", "id": "1145", "properties": { "date": "2023-03-01", "address": "The Warren, Middle Floor, Flat B", "price": 19000, "changes": "--", "saleable_area(ft^2)": "383", "unit_rate": 50, "district": "Wan Chai District", "Tower": null, "Flat": "B", "Phase": null, "Block": null, "Rental": true, "Public Housing": false, "floor": 13.0, "latitude": 22.2783989, "longitude": 114.1914292390064 }, "geometry": { "type": "Point", "coordinates": [ 114.191429239006396, 22.2783989 ] } },
{ "type": "Feature", "id": "1146", "properties": { "date": "2023-03-01", "address": "Serenade, Tower 2, Middle Floor, Flat B", "price": 57000, "changes": "--", "saleable_area(ft^2)": "1,170", "unit_rate": 49, "district": "Wan Chai District", "Tower": "2", "Flat": "B", "Phase": null, "Block": null, "Rental": true, "Public Housing": false, "floor": 13.0, "latitude": 22.27665605, "longitude": 114.19543991171612 }, "geometry": { "type": "Point", "coordinates": [ 114.195439911716122, 22.27665605 ] } },
{ "type": "Feature", "id": "1150", "properties": { "date": "2023-03-01", "address": "Warrenwoods, Lower Floor, Flat E", "price": 13800, "changes": "--", "saleable_area(ft^2)": "272", "unit_rate": 51, "district": "Wan Chai District", "Tower": null, "Flat": "E", "Phase": null, "Block": null, "Rental": true, "Public Housing": false, "floor": 7.0, "latitude": 22.27811235, "longitude": 114.19164496807019 }, "geometry": { "type": "Point", "coordinates": [ 114.191644968070193, 22.27811235 ] } },
{ "type": "Feature", "id": "1161", "properties": { "date": "2023-03-01", "address": "Park Towers, Tower 1, Middle Floor, Flat H", "price": 44000, "changes": "--", "saleable_area(ft^2)": "949", "unit_rate": 46, "district": "Wan Chai District", "Tower": "1", "Flat": "H", "Phase": null, "Block": null, "Rental": true, "Public Housing": false, "floor": 13.0, "latitude": 22.28257685, "longitude": 114.1916623280402 }, "geometry": { "type": "Point", "coordinates": [ 114.191662328040195, 22.28257685 ] } },
{ "type": "Feature", "id": "1163", "properties": { "date": "2023-03-01", "address": "Ronsdale Garden, Block 1, Lower Floor, Flat F", "price": 30000, "changes": "--", "saleable_area(ft^2)": "694", "unit_rate": 43, "district": "Wan Chai District", "Tower": null, "Flat": "F", "Phase": null, "Block": "1", "Rental": true, "Public Housing": false, "floor": 7.0, "latitude": 22.27495735, "longitude": 114.1956766432771 }, "geometry": { "type": "Point", "coordinates": [ 114.195676643277096, 22.27495735 ] } },
{ "type": "Feature", "id": "1171", "properties": { "date": "2023-03-01", "address": "Caine Mansion, 10/F, Flat A", "price": 4450000, "changes": "145%", "saleable_area(ft^2)": "382", "unit_rate": 11649, "district": "Wan Chai District", "Tower": null, "Flat": "A", "Phase": null, "Block": null, "Rental": false, "Public Housing": false, "floor": 10.0, "latitude": 22.2793363, "longitude": 114.17995156979669 }, "geometry": { "type": "Point", "coordinates": [ 114.179951569796685, 22.2793363 ] } },
{ "type": "Feature", "id": "1174", "properties": { "date": "2023-03-01", "address": "Pearl City Mansion, Block C, 22/F, Flat C7", "price": 7890000, "changes": "--", "saleable_area(ft^2)": "493", "unit_rate": 16000, "district": "Wan Chai District", "Tower": null, "Flat": "C", "Phase": null, "Block": "C", "Rental": false, "Public Housing": false, "floor": 22.0, "latitude": 22.28087265, "longitude": 114.18590863400178 }, "geometry": { "type": "Point", "coordinates": [ 114.185908634001777, 22.28087265 ] } },
{ "type": "Feature", "id": "1175", "properties": { "date": "2023-03-01", "address": "Jolly House, 25/F, Flat C", "price": 3230000, "changes": "87%", "saleable_area(ft^2)": "159", "unit_rate": 20314, "district": "Wan Chai District", "Tower": null, "Flat": "C", "Phase": null, "Block": null, "Rental": false, "Public Housing": false, "floor": 25.0, "latitude": 22.27960235, "longitude": 114.19265670832669 }, "geometry": { "type": "Point", "coordinates": [ 114.192656708326695, 22.27960235 ] } },
{ "type": "Feature", "id": "1176", "properties": { "date": "2023-03-01", "address": "Chee On Building, 13/F, Flat N", "price": 7600000, "changes": "--", "saleable_area(ft^2)": "555", "unit_rate": 13694, "district": "Wan Chai District", "Tower": null, "Flat": "N", "Phase": null, "Block": null, "Rental": false, "Public Housing": false, "floor": 13.0, "latitude": 22.28093635, "longitude": 114.184816605785 }, "geometry": { "type": "Point", "coordinates": [ 114.184816605785002, 22.28093635 ] } },
{ "type": "Feature", "id": "1177", "properties": { "date": "2023-02-28", "address": "Oi Kwan Court, Lower Floor, Flat F", "price": 8100000, "changes": "--", "saleable_area(ft^2)": "560", "unit_rate": 14464, "district": "Wan Chai District", "Tower": null, "Flat": "F", "Phase": null, "Block": null, "Rental": false, "Public Housing": false, "floor": 7.0, "latitude": 22.27592205, "longitude": 114.19363531137492 }, "geometry": { "type": "Point", "coordinates": [ 114.193635311374919, 22.27592205 ] } },
{ "type": "Feature", "id": "1178", "properties": { "date": "2023-02-28", "address": "Belle House, 15/F, Flat 2", "price": 7100000, "changes": "--", "saleable_area(ft^2)": "515", "unit_rate": 13786, "district": "Wan Chai District", "Tower": null, "Flat": "2", "Phase": null, "Block": null, "Rental": false, "Public Housing": false, "floor": 15.0, "latitude": 22.28589395, "longitude": 114.1906231214069 }, "geometry": { "type": "Point", "coordinates": [ 114.190623121406901, 22.28589395 ] } },
{ "type": "Feature", "id": "1179", "properties": { "date": "2023-02-27", "address": "Belle House, Lower Floor, Flat 5", "price": 7280000, "changes": "--", "saleable_area(ft^2)": "510", "unit_rate": 14275, "district": "Wan Chai District", "Tower": null, "Flat": "5", "Phase": null, "Block": null, "Rental": false, "Public Housing": false, "floor": 7.0, "latitude": 22.28589395, "longitude": 114.1906231214069 }, "geometry": { "type": "Point", "coordinates": [ 114.190623121406901, 22.28589395 ] } },
{ "type": "Feature", "id": "1182", "properties": { "date": "2023-02-27", "address": "Illumination Terrace, Block 1, Middle Floor, Flat A", "price": 30000, "changes": "--", "saleable_area(ft^2)": "731", "unit_rate": 41, "district": "Wan Chai District", "Tower": null, "Flat": "A", "Phase": null, "Block": "1", "Rental": true, "Public Housing": false, "floor": 13.0, "latitude": 22.277071, "longitude": 114.1936099 }, "geometry": { "type": "Point", "coordinates": [ 114.1936099, 22.277071 ] } },
{ "type": "Feature", "id": "1184", "properties": { "date": "2023-02-27", "address": "Wun Sha Tower, 13/F, Flat 2", "price": 8480000, "changes": "74%", "saleable_area(ft^2)": "547", "unit_rate": 15503, "district": "Wan Chai District", "Tower": null, "Flat": "2", "Phase": null, "Block": null, "Rental": false, "Public Housing": false, "floor": 13.0, "latitude": 22.2782893, "longitude": 114.19322354969256 }, "geometry": { "type": "Point", "coordinates": [ 114.193223549692561, 22.2782893 ] } },
{ "type": "Feature", "id": "1187", "properties": { "date": "2023-02-26", "address": "Villa D' Arte, Upper Floor, Flat B", "price": 18000, "changes": "--", "saleable_area(ft^2)": "450", "unit_rate": 40, "district": "Wan Chai District", "Tower": null, "Flat": "B", "Phase": null, "Block": null, "Rental": true, "Public Housing": false, "floor": 22.0, "latitude": 22.27800715, "longitude": 114.19342123673854 }, "geometry": { "type": "Point", "coordinates": [ 114.193421236738544, 22.27800715 ] } },
{ "type": "Feature", "id": "1188", "properties": { "date": "2023-02-25", "address": "Illumination Terrace, Block 2, Middle Floor, Flat G", "price": 23000, "changes": "--", "saleable_area(ft^2)": "568", "unit_rate": 40, "district": "Wan Chai District", "Tower": null, "Flat": "G", "Phase": null, "Block": "2", "Rental": true, "Public Housing": false, "floor": 13.0, "latitude": 22.277071, "longitude": 114.1936099 }, "geometry": { "type": "Point", "coordinates": [ 114.1936099, 22.277071 ] } },
{ "type": "Feature", "id": "1189", "properties": { "date": "2023-02-25", "address": "Illumination Terrace, Block 2, Middle Floor, Flat E", "price": 23000, "changes": "--", "saleable_area(ft^2)": "616", "unit_rate": 37, "district": "Wan Chai District", "Tower": null, "Flat": "E", "Phase": null, "Block": "2", "Rental": true, "Public Housing": false, "floor": 13.0, "latitude": 22.277071, "longitude": 114.1936099 }, "geometry": { "type": "Point", "coordinates": [ 114.1936099, 22.277071 ] } },
{ "type": "Feature", "id": "1191", "properties": { "date": "2023-02-24", "address": "Hoi Sun Building, 12/F, Flat C", "price": 4000000, "changes": "82%", "saleable_area(ft^2)": "308", "unit_rate": 12987, "district": "Wan Chai District", "Tower": null, "Flat": "C", "Phase": null, "Block": null, "Rental": false, "Public Housing": false, "floor": 12.0, "latitude": 22.28599185, "longitude": 114.19236396118718 }, "geometry": { "type": "Point", "coordinates": [ 114.192363961187183, 22.28599185 ] } },
{ "type": "Feature", "id": "1196", "properties": { "date": "2023-02-23", "address": "Park Towers, Tower 2, Upper Floor, Flat D", "price": 20680000, "changes": "--", "saleable_area(ft^2)": "919", "unit_rate": 22503, "district": "Wan Chai District", "Tower": "2", "Flat": "D", "Phase": null, "Block": null, "Rental": false, "Public Housing": false, "floor": 22.0, "latitude": 22.28257685, "longitude": 114.1916623280402 }, "geometry": { "type": "Point", "coordinates": [ 114.191662328040195, 22.28257685 ] } },
{ "type": "Feature", "id": "1197", "properties": { "date": "2023-02-23", "address": "Viking Garden, Block A, Lower Floor, Flat 5", "price": 16200, "changes": "--", "saleable_area(ft^2)": "422", "unit_rate": 38, "district": "Wan Chai District", "Tower": null, "Flat": "5", "Phase": null, "Block": "A", "Rental": true, "Public Housing": false, "floor": 7.0, "latitude": 22.2839138, "longitude": 114.19142878615204 }, "geometry": { "type": "Point", "coordinates": [ 114.191428786152045, 22.2839138 ] } },
{ "type": "Feature", "id": "1199", "properties": { "date": "2023-02-23", "address": "Malahon Apartments, 3/F, Flat A", "price": 5280000, "changes": "--", "saleable_area(ft^2)": "400", "unit_rate": 13200, "district": "Wan Chai District", "Tower": null, "Flat": "A", "Phase": null, "Block": null, "Rental": false, "Public Housing": false, "floor": 3.0, "latitude": 22.28130505, "longitude": 114.18315143058857 }, "geometry": { "type": "Point", "coordinates": [ 114.183151430588566, 22.28130505 ] } },
{ "type": "Feature", "id": "1204", "properties": { "date": "2023-02-22", "address": "Serenade, Tower 2, Lower Floor, Flat A", "price": 41000, "changes": "--", "saleable_area(ft^2)": "788", "unit_rate": 52, "district": "Wan Chai District", "Tower": "2", "Flat": "A", "Phase": null, "Block": null, "Rental": true, "Public Housing": false, "floor": 7.0, "latitude": 22.27665605, "longitude": 114.19543991171612 }, "geometry": { "type": "Point", "coordinates": [ 114.195439911716122, 22.27665605 ] } },
{ "type": "Feature", "id": "1205", "properties": { "date": "2023-02-22", "address": "Hamilton Mansion, 12/F, Flat B", "price": 19580000, "changes": "--", "saleable_area(ft^2)": "1,220", "unit_rate": 16049, "district": "Wan Chai District", "Tower": null, "Flat": "B", "Phase": null, "Block": null, "Rental": false, "Public Housing": false, "floor": 12.0, "latitude": 22.2818003, "longitude": 114.18556780019466 }, "geometry": { "type": "Point", "coordinates": [ 114.185567800194661, 22.2818003 ] } },
{ "type": "Feature", "id": "1206", "properties": { "date": "2023-02-21", "address": "Yoo Residence, Middle Floor, Flat B", "price": 22000, "changes": "--", "saleable_area(ft^2)": "441", "unit_rate": 50, "district": "Wan Chai District", "Tower": null, "Flat": "B", "Phase": null, "Block": null, "Rental": true, "Public Housing": false, "floor": 13.0, "latitude": 22.27900615, "longitude": 114.18887963884892 }, "geometry": { "type": "Point", "coordinates": [ 114.188879638848917, 22.27900615 ] } },
{ "type": "Feature", "id": "1213", "properties": { "date": "2023-02-20", "address": "Park Haven, Middle Floor, Flat G", "price": 27000, "changes": "--", "saleable_area(ft^2)": "610", "unit_rate": 44, "district": "Wan Chai District", "Tower": null, "Flat": "G", "Phase": null, "Block": null, "Rental": true, "Public Housing": false, "floor": 13.0, "latitude": 22.2777189, "longitude": 114.1871914160196 }, "geometry": { "type": "Point", "coordinates": [ 114.187191416019601, 22.2777189 ] } },
{ "type": "Feature", "id": "1216", "properties": { "date": "2023-02-20", "address": "Merlin Garden, 16/F, Flat C", "price": 6280000, "changes": "-14%", "saleable_area(ft^2)": "391", "unit_rate": 16061, "district": "Wan Chai District", "Tower": null, "Flat": "C", "Phase": null, "Block": null, "Rental": false, "Public Housing": false, "floor": 16.0, "latitude": 22.2872513, "longitude": 114.19198830291164 }, "geometry": { "type": "Point", "coordinates": [ 114.191988302911639, 22.2872513 ] } },
{ "type": "Feature", "id": "1218", "properties": { "date": "2023-02-19", "address": "1 Tai Hang Road, Upper Floor, Flat A", "price": 35000, "changes": "--", "saleable_area(ft^2)": "872", "unit_rate": 40, "district": "Wan Chai District", "Tower": null, "Flat": "A", "Phase": null, "Block": null, "Rental": true, "Public Housing": false, "floor": 22.0, "latitude": 22.27804525, "longitude": 114.19140680427442 }, "geometry": { "type": "Point", "coordinates": [ 114.191406804274422, 22.27804525 ] } },
{ "type": "Feature", "id": "1219", "properties": { "date": "2023-02-18", "address": "180-186 Hennessy Road, Middle Floor, No. 182", "price": 18000, "changes": "--", "saleable_area(ft^2)": "680", "unit_rate": 26, "district": "Wan Chai District", "Tower": null, "Flat": null, "Phase": null, "Block": null, "Rental": true, "Public Housing": false, "floor": 13.0, "latitude": 22.2799927, "longitude": 114.1827181 }, "geometry": { "type": "Point", "coordinates": [ 114.1827181, 22.2799927 ] } },
{ "type": "Feature", "id": "1220", "properties": { "date": "2023-02-18", "address": "Park Towers, Tower 1, Middle Floor, Flat F", "price": 40000, "changes": "--", "saleable_area(ft^2)": "949", "unit_rate": 42, "district": "Wan Chai District", "Tower": "1", "Flat": "F", "Phase": null, "Block": null, "Rental": true, "Public Housing": false, "floor": 13.0, "latitude": 22.28257685, "longitude": 114.1916623280402 }, "geometry": { "type": "Point", "coordinates": [ 114.191662328040195, 22.28257685 ] } },
{ "type": "Feature", "id": "1225", "properties": { "date": "2023-02-17", "address": "1 Tai Hang Road, 2/F, Flat B", "price": 9180000, "changes": "46%", "saleable_area(ft^2)": "559", "unit_rate": 16422, "district": "Wan Chai District", "Tower": null, "Flat": "B", "Phase": null, "Block": null, "Rental": false, "Public Housing": false, "floor": 2.0, "latitude": 22.27804525, "longitude": 114.19140680427442 }, "geometry": { "type": "Point", "coordinates": [ 114.191406804274422, 22.27804525 ] } },
{ "type": "Feature", "id": "1226", "properties": { "date": "2023-02-17", "address": "Lei Wen Court, 6/F, No. 23A", "price": 5100000, "changes": "--", "saleable_area(ft^2)": "461", "unit_rate": 11063, "district": "Wan Chai District", "Tower": null, "Flat": null, "Phase": null, "Block": null, "Rental": false, "Public Housing": false, "floor": 6.0, "latitude": 22.2774975, "longitude": 114.18698533246253 }, "geometry": { "type": "Point", "coordinates": [ 114.186985332462527, 22.2774975 ] } },
{ "type": "Feature", "id": "1230", "properties": { "date": "2023-02-16", "address": "Ronsdale Garden, Block 2, 16/F, Flat E", "price": 14600000, "changes": "39%", "saleable_area(ft^2)": "694", "unit_rate": 21037, "district": "Wan Chai District", "Tower": null, "Flat": "E", "Phase": null, "Block": "2", "Rental": false, "Public Housing": false, "floor": 16.0, "latitude": 22.27495735, "longitude": 114.1956766432771 }, "geometry": { "type": "Point", "coordinates": [ 114.195676643277096, 22.27495735 ] } },
{ "type": "Feature", "id": "1231", "properties": { "date": "2023-02-15", "address": "Elizabeth House, Block A, Upper Floor, Flat 4", "price": 26300, "changes": "--", "saleable_area(ft^2)": "698", "unit_rate": 38, "district": "Wan Chai District", "Tower": null, "Flat": "4", "Phase": null, "Block": "A", "Rental": true, "Public Housing": false, "floor": 22.0, "latitude": 22.2808353, "longitude": 114.18142617820038 }, "geometry": { "type": "Point", "coordinates": [ 114.181426178200383, 22.2808353 ] } },
{ "type": "Feature", "id": "1233", "properties": { "date": "2023-02-15", "address": "Kailey Court, Lower Floor, Flat C", "price": 18500, "changes": "--", "saleable_area(ft^2)": "333", "unit_rate": 56, "district": "Wan Chai District", "Tower": null, "Flat": "C", "Phase": null, "Block": null, "Rental": true, "Public Housing": false, "floor": 7.0, "latitude": 22.28571, "longitude": 114.19273600947631 }, "geometry": { "type": "Point", "coordinates": [ 114.192736009476306, 22.28571 ] } },
{ "type": "Feature", "id": "1243", "properties": { "date": "2023-02-14", "address": "Elizabeth House, Block C, Upper Floor, Flat 1", "price": 21000, "changes": "--", "saleable_area(ft^2)": "536", "unit_rate": 39, "district": "Wan Chai District", "Tower": null, "Flat": "1", "Phase": null, "Block": "C", "Rental": true, "Public Housing": false, "floor": 22.0, "latitude": 22.2808353, "longitude": 114.18142617820038 }, "geometry": { "type": "Point", "coordinates": [ 114.181426178200383, 22.2808353 ] } },
{ "type": "Feature", "id": "1245", "properties": { "date": "2023-02-14", "address": "Dragon Rise, Lower Floor, Flat B", "price": 15000, "changes": "--", "saleable_area(ft^2)": "308", "unit_rate": 49, "district": "Wan Chai District", "Tower": null, "Flat": "B", "Phase": null, "Block": null, "Rental": true, "Public Housing": false, "floor": 7.0, "latitude": 22.278915, "longitude": 114.18591893340108 }, "geometry": { "type": "Point", "coordinates": [ 114.185918933401084, 22.278915 ] } },
{ "type": "Feature", "id": "1246", "properties": { "date": "2023-02-14", "address": "Jupiter Terrace, Tower 2, 7/F, Flat C", "price": 6000000, "changes": "168%", "saleable_area(ft^2)": "420", "unit_rate": 14286, "district": "Wan Chai District", "Tower": "2", "Flat": "C", "Phase": null, "Block": null, "Rental": false, "Public Housing": false, "floor": 7.0, "latitude": 22.2865277, "longitude": 114.19223552054484 }, "geometry": { "type": "Point", "coordinates": [ 114.192235520544841, 22.2865277 ] } },
{ "type": "Feature", "id": "1247", "properties": { "date": "2023-02-14", "address": "The Grandeur, 12/F, Flat C", "price": 7000000, "changes": "-9%", "saleable_area(ft^2)": "391", "unit_rate": 17903, "district": "Wan Chai District", "Tower": null, "Flat": "C", "Phase": null, "Block": null, "Rental": false, "Public Housing": false, "floor": 12.0, "latitude": 22.2791836, "longitude": 114.18523275237609 }, "geometry": { "type": "Point", "coordinates": [ 114.185232752376095, 22.2791836 ] } },
{ "type": "Feature", "id": "1249", "properties": { "date": "2023-02-11", "address": "Wunsha Court, Lower Floor, Flat C", "price": 14300, "changes": "--", "saleable_area(ft^2)": "325", "unit_rate": 44, "district": "Wan Chai District", "Tower": null, "Flat": "C", "Phase": null, "Block": null, "Rental": true, "Public Housing": false, "floor": 7.0, "latitude": 22.2792937, "longitude": 114.19255686437054 }, "geometry": { "type": "Point", "coordinates": [ 114.192556864370545, 22.2792937 ] } },
{ "type": "Feature", "id": "1251", "properties": { "date": "2023-02-10", "address": "Viking Garden, Block A, Lower Floor, Flat 7", "price": 18000, "changes": "--", "saleable_area(ft^2)": "449", "unit_rate": 40, "district": "Wan Chai District", "Tower": null, "Flat": "7", "Phase": null, "Block": "A", "Rental": true, "Public Housing": false, "floor": 7.0, "latitude": 22.2839138, "longitude": 114.19142878615204 }, "geometry": { "type": "Point", "coordinates": [ 114.191428786152045, 22.2839138 ] } },
{ "type": "Feature", "id": "1252", "properties": { "date": "2023-02-10", "address": "Yoo Residence, Lower Floor, Flat B", "price": 18000, "changes": "--", "saleable_area(ft^2)": "370", "unit_rate": 49, "district": "Wan Chai District", "Tower": null, "Flat": "B", "Phase": null, "Block": null, "Rental": true, "Public Housing": false, "floor": 7.0, "latitude": 22.27900615, "longitude": 114.18887963884892 }, "geometry": { "type": "Point", "coordinates": [ 114.188879638848917, 22.27900615 ] } },
{ "type": "Feature", "id": "1258", "properties": { "date": "2023-02-10", "address": "The Consonance, 30/F, Flat C", "price": 10030000, "changes": "--", "saleable_area(ft^2)": "265", "unit_rate": 37867, "district": "Wan Chai District", "Tower": null, "Flat": "C", "Phase": null, "Block": null, "Rental": false, "Public Housing": false, "floor": 30.0, "latitude": 22.28622115, "longitude": 114.1920958 }, "geometry": { "type": "Point", "coordinates": [ 114.1920958, 22.28622115 ] } },
{ "type": "Feature", "id": "1259", "properties": { "date": "2023-02-10", "address": "Po Wing Building, 6/F, Flat B", "price": 4900000, "changes": "--", "saleable_area(ft^2)": "362", "unit_rate": 13536, "district": "Wan Chai District", "Tower": null, "Flat": "B", "Phase": null, "Block": null, "Rental": false, "Public Housing": false, "floor": 6.0, "latitude": 22.2782846, "longitude": 114.18368328634681 }, "geometry": { "type": "Point", "coordinates": [ 114.183683286346806, 22.2782846 ] } },
{ "type": "Feature", "id": "1266", "properties": { "date": "2023-02-08", "address": "Jones Hive, 25/F, Flat C", "price": 10000000, "changes": "3%", "saleable_area(ft^2)": "439", "unit_rate": 22779, "district": "Wan Chai District", "Tower": null, "Flat": "C", "Phase": null, "Block": null, "Rental": false, "Public Housing": false, "floor": 25.0, "latitude": 22.27826105, "longitude": 114.1911519 }, "geometry": { "type": "Point", "coordinates": [ 114.1911519, 22.27826105 ] } },
{ "type": "Feature", "id": "1267", "properties": { "date": "2023-02-07", "address": "111 Mount Butler Road, Block J & K, Upper Floor, Block K", "price": 60500, "changes": "--", "saleable_area(ft^2)": "2,287", "unit_rate": 26, "district": "Wan Chai District", "Tower": null, "Flat": null, "Phase": null, "Block": "J", "Rental": true, "Public Housing": false, "floor": 22.0, "latitude": 22.2718204, "longitude": 114.19586270842984 }, "geometry": { "type": "Point", "coordinates": [ 114.195862708429843, 22.2718204 ] } },
{ "type": "Feature", "id": "1268", "properties": { "date": "2023-02-07", "address": "Dukes Place, B/F, Flat A", "price": 287140000, "changes": "--", "saleable_area(ft^2)": "4,000", "unit_rate": 71785, "district": "Wan Chai District", "Tower": null, "Flat": "A", "Phase": null, "Block": null, "Rental": false, "Public Housing": false, "floor": 19.0, "latitude": 22.2696731, "longitude": 114.19414805019392 }, "geometry": { "type": "Point", "coordinates": [ 114.194148050193917, 22.2696731 ] } },
{ "type": "Feature", "id": "1270", "properties": { "date": "2023-02-07", "address": "The Grandeur, 13/F, Flat B", "price": 7180000, "changes": "12%", "saleable_area(ft^2)": "394", "unit_rate": 18223, "district": "Wan Chai District", "Tower": null, "Flat": "B", "Phase": null, "Block": null, "Rental": false, "Public Housing": false, "floor": 13.0, "latitude": 22.2791836, "longitude": 114.18523275237609 }, "geometry": { "type": "Point", "coordinates": [ 114.185232752376095, 22.2791836 ] } },
{ "type": "Feature", "id": "1271", "properties": { "date": "2023-02-06", "address": "Ronsdale Garden, Block 2, Upper Floor, Flat E", "price": 31000, "changes": "--", "saleable_area(ft^2)": "694", "unit_rate": 45, "district": "Wan Chai District", "Tower": null, "Flat": "E", "Phase": null, "Block": "2", "Rental": true, "Public Housing": false, "floor": 22.0, "latitude": 22.27495735, "longitude": 114.1956766432771 }, "geometry": { "type": "Point", "coordinates": [ 114.195676643277096, 22.27495735 ] } },
{ "type": "Feature", "id": "1272", "properties": { "date": "2023-02-06", "address": "Butler Towers, Block Ab, Middle Floor, Flat A", "price": 58000, "changes": "--", "saleable_area(ft^2)": "1,492", "unit_rate": 39, "district": "Wan Chai District", "Tower": null, "Flat": "A", "Phase": null, "Block": "A", "Rental": true, "Public Housing": false, "floor": 13.0, "latitude": 22.26991435, "longitude": 114.19592254679937 }, "geometry": { "type": "Point", "coordinates": [ 114.195922546799366, 22.26991435 ] } },
{ "type": "Feature", "id": "1273", "properties": { "date": "2023-02-06", "address": "Illumination Terrace, Block 1, Lower Floor, Flat C", "price": 35800, "changes": "--", "saleable_area(ft^2)": "800", "unit_rate": 45, "district": "Wan Chai District", "Tower": null, "Flat": "C", "Phase": null, "Block": "1", "Rental": true, "Public Housing": false, "floor": 7.0, "latitude": 22.277071, "longitude": 114.1936099 }, "geometry": { "type": "Point", "coordinates": [ 114.1936099, 22.277071 ] } },
{ "type": "Feature", "id": "1274", "properties": { "date": "2023-02-06", "address": "Elizabeth House, Block C, 16/F, Flat 5", "price": 7800000, "changes": "26%", "saleable_area(ft^2)": "536", "unit_rate": 14552, "district": "Wan Chai District", "Tower": null, "Flat": "5", "Phase": null, "Block": "C", "Rental": false, "Public Housing": false, "floor": 16.0, "latitude": 22.2808353, "longitude": 114.18142617820038 }, "geometry": { "type": "Point", "coordinates": [ 114.181426178200383, 22.2808353 ] } },
{ "type": "Feature", "id": "1279", "properties": { "date": "2023-02-03", "address": "Leigyinn Building, 58-64A Leighton Road, 2/F, No. 58", "price": 13500000, "changes": "--", "saleable_area(ft^2)": "1,084", "unit_rate": 12454, "district": "Wan Chai District", "Tower": null, "Flat": null, "Phase": null, "Block": null, "Rental": false, "Public Housing": false, "floor": 2.0, "latitude": 22.2771327, "longitude": 114.18436477681892 }, "geometry": { "type": "Point", "coordinates": [ 114.184364776818924, 22.2771327 ] } },
{ "type": "Feature", "id": "1280", "properties": { "date": "2023-02-03", "address": "Victoria Park Mansion, 10/F, Flat C", "price": 12400000, "changes": "--", "saleable_area(ft^2)": "901", "unit_rate": 13762, "district": "Wan Chai District", "Tower": null, "Flat": "C", "Phase": null, "Block": null, "Rental": false, "Public Housing": false, "floor": 10.0, "latitude": 22.28230705, "longitude": 114.18602760399833 }, "geometry": { "type": "Point", "coordinates": [ 114.186027603998326, 22.28230705 ] } },
{ "type": "Feature", "id": "1288", "properties": { "date": "2023-02-01", "address": "Tai Hang Terrace, Block B, Middle Floor, Flat 11", "price": 24000, "changes": "--", "saleable_area(ft^2)": "511", "unit_rate": 47, "district": "Wan Chai District", "Tower": null, "Flat": "11", "Phase": null, "Block": "B", "Rental": true, "Public Housing": false, "floor": 13.0, "latitude": 22.2742121, "longitude": 114.19397553810032 }, "geometry": { "type": "Point", "coordinates": [ 114.193975538100318, 22.2742121 ] } },
{ "type": "Feature", "id": "1290", "properties": { "date": "2023-02-01", "address": "Jones Hive, Middle Floor, Flat D", "price": 19000, "changes": "--", "saleable_area(ft^2)": "333", "unit_rate": 57, "district": "Wan Chai District", "Tower": null, "Flat": "D", "Phase": null, "Block": null, "Rental": true, "Public Housing": false, "floor": 13.0, "latitude": 22.27826105, "longitude": 114.1911519 }, "geometry": { "type": "Point", "coordinates": [ 114.1911519, 22.27826105 ] } },
{ "type": "Feature", "id": "1294", "properties": { "date": "2023-02-01", "address": "Viking Villas, Block C, Lower Floor, Flat 7", "price": 31500, "changes": "--", "saleable_area(ft^2)": "700", "unit_rate": 45, "district": "Wan Chai District", "Tower": null, "Flat": "7", "Phase": null, "Block": "C", "Rental": true, "Public Housing": false, "floor": 7.0, "latitude": 22.28557795, "longitude": 114.19441349045272 }, "geometry": { "type": "Point", "coordinates": [ 114.194413490452717, 22.28557795 ] } },
{ "type": "Feature", "id": "1295", "properties": { "date": "2023-02-01", "address": "The Consonance, Lower Floor, Flat H", "price": 12000, "changes": "--", "saleable_area(ft^2)": "200", "unit_rate": 60, "district": "Wan Chai District", "Tower": null, "Flat": "H", "Phase": null, "Block": null, "Rental": true, "Public Housing": false, "floor": 7.0, "latitude": 22.28622115, "longitude": 114.1920958 }, "geometry": { "type": "Point", "coordinates": [ 114.1920958, 22.28622115 ] } },
{ "type": "Feature", "id": "1296", "properties": { "date": "2023-02-01", "address": "Park Towers, Tower 1, Lower Floor, Flat H", "price": 40500, "changes": "--", "saleable_area(ft^2)": "949", "unit_rate": 43, "district": "Wan Chai District", "Tower": "1", "Flat": "H", "Phase": null, "Block": null, "Rental": true, "Public Housing": false, "floor": 7.0, "latitude": 22.28257685, "longitude": 114.1916623280402 }, "geometry": { "type": "Point", "coordinates": [ 114.191662328040195, 22.28257685 ] } },
{ "type": "Feature", "id": "1299", "properties": { "date": "2023-02-01", "address": "The Legend, Tower 1, Middle Floor, Flat B", "price": 58000, "changes": "--", "saleable_area(ft^2)": "1,104", "unit_rate": 53, "district": "Wan Chai District", "Tower": "1", "Flat": "B", "Phase": null, "Block": null, "Rental": true, "Public Housing": false, "floor": 13.0, "latitude": 22.2750745, "longitude": 114.1952050409956 }, "geometry": { "type": "Point", "coordinates": [ 114.195205040995603, 22.2750745 ] } },
{ "type": "Feature", "id": "1303", "properties": { "date": "2023-02-01", "address": "Yan Wo Yuet Building, 10/F, Flat C2", "price": 2880000, "changes": "-4%", "saleable_area(ft^2)": "231", "unit_rate": 12468, "district": "Wan Chai District", "Tower": null, "Flat": "C", "Phase": null, "Block": null, "Rental": false, "Public Housing": false, "floor": 10.0, "latitude": 22.2792786, "longitude": 114.18156677277486 }, "geometry": { "type": "Point", "coordinates": [ 114.181566772774858, 22.2792786 ] } },
{ "type": "Feature", "id": "1305", "properties": { "date": "2023-02-01", "address": "Victoria Mansion, 6/F, Flat F", "price": 3500000, "changes": "--", "saleable_area(ft^2)": "307", "unit_rate": 11401, "district": "Wan Chai District", "Tower": null, "Flat": "F", "Phase": null, "Block": null, "Rental": false, "Public Housing": false, "floor": 6.0, "latitude": 22.28559795, "longitude": 114.19122805672409 }, "geometry": { "type": "Point", "coordinates": [ 114.191228056724086, 22.28559795 ] } },
{ "type": "Feature", "id": "1308", "properties": { "date": "2023-01-31", "address": "Wunsha Court, 16/F, Flat B", "price": 6480000, "changes": "--", "saleable_area(ft^2)": "325", "unit_rate": 19938, "district": "Wan Chai District", "Tower": null, "Flat": "B", "Phase": null, "Block": null, "Rental": false, "Public Housing": false, "floor": 16.0, "latitude": 22.2792937, "longitude": 114.19255686437054 }, "geometry": { "type": "Point", "coordinates": [ 114.192556864370545, 22.2792937 ] } },
{ "type": "Feature", "id": "1310", "properties": { "date": "2023-01-31", "address": "Pearl City Mansion, Block C, 29/F, Flat C6", "price": 8100000, "changes": "--", "saleable_area(ft^2)": "493", "unit_rate": 16430, "district": "Wan Chai District", "Tower": null, "Flat": "C", "Phase": null, "Block": "C", "Rental": false, "Public Housing": false, "floor": 29.0, "latitude": 22.28087265, "longitude": 114.18590863400178 }, "geometry": { "type": "Point", "coordinates": [ 114.185908634001777, 22.28087265 ] } },
{ "type": "Feature", "id": "1312", "properties": { "date": "2023-01-31", "address": "Hoi To Court, 15/F, Flat G", "price": 7350000, "changes": "--", "saleable_area(ft^2)": "560", "unit_rate": 13125, "district": "Wan Chai District", "Tower": null, "Flat": "G", "Phase": null, "Block": null, "Rental": false, "Public Housing": false, "floor": 15.0, "latitude": 22.28167775, "longitude": 114.1833505125757 }, "geometry": { "type": "Point", "coordinates": [ 114.1833505125757, 22.28167775 ] } },
{ "type": "Feature", "id": "1313", "properties": { "date": "2023-01-30", "address": "Ronsdale Garden, Block 2, Middle Floor, Flat E", "price": 14600000, "changes": "--", "saleable_area(ft^2)": "694", "unit_rate": 21037, "district": "Wan Chai District", "Tower": null, "Flat": "E", "Phase": null, "Block": "2", "Rental": false, "Public Housing": false, "floor": 13.0, "latitude": 22.27495735, "longitude": 114.1956766432771 }, "geometry": { "type": "Point", "coordinates": [ 114.195676643277096, 22.27495735 ] } },
{ "type": "Feature", "id": "1315", "properties": { "date": "2023-01-30", "address": "Bay View Mansion, Block A, 17/F, Flat 2", "price": 11500000, "changes": "--", "saleable_area(ft^2)": "933", "unit_rate": 12326, "district": "Wan Chai District", "Tower": null, "Flat": "2", "Phase": null, "Block": "A", "Rental": false, "Public Housing": false, "floor": 17.0, "latitude": 22.2795413, "longitude": 114.18879233383922 }, "geometry": { "type": "Point", "coordinates": [ 114.188792333839217, 22.2795413 ] } },
{ "type": "Feature", "id": "1316", "properties": { "date": "2023-01-30", "address": "Kui Lee Building, 12/F, Flat A", "price": 4100000, "changes": "-7%", "saleable_area(ft^2)": "307", "unit_rate": 13355, "district": "Wan Chai District", "Tower": null, "Flat": "A", "Phase": null, "Block": null, "Rental": false, "Public Housing": false, "floor": 12.0, "latitude": 22.28570125, "longitude": 114.19234862557586 }, "geometry": { "type": "Point", "coordinates": [ 114.19234862557586, 22.28570125 ] } },
{ "type": "Feature", "id": "1318", "properties": { "date": "2023-01-28", "address": "Malahon Apartments, Middle Floor, Flat K", "price": 15800, "changes": "--", "saleable_area(ft^2)": "355", "unit_rate": 45, "district": "Wan Chai District", "Tower": null, "Flat": "K", "Phase": null, "Block": null, "Rental": true, "Public Housing": false, "floor": 13.0, "latitude": 22.28130505, "longitude": 114.18315143058857 }, "geometry": { "type": "Point", "coordinates": [ 114.183151430588566, 22.28130505 ] } },
{ "type": "Feature", "id": "1324", "properties": { "date": "2023-01-26", "address": "Illumination Terrace, Block 2, Middle Floor, Flat H", "price": 23500, "changes": "--", "saleable_area(ft^2)": "616", "unit_rate": 38, "district": "Wan Chai District", "Tower": null, "Flat": "H", "Phase": null, "Block": "2", "Rental": true, "Public Housing": false, "floor": 13.0, "latitude": 22.277071, "longitude": 114.1936099 }, "geometry": { "type": "Point", "coordinates": [ 114.1936099, 22.277071 ] } },
{ "type": "Feature", "id": "1325", "properties": { "date": "2023-01-26", "address": "Yoo Residence, Middle Floor, Flat G", "price": 19000, "changes": "--", "saleable_area(ft^2)": "355", "unit_rate": 54, "district": "Wan Chai District", "Tower": null, "Flat": "G", "Phase": null, "Block": null, "Rental": true, "Public Housing": false, "floor": 13.0, "latitude": 22.27900615, "longitude": 114.18887963884892 }, "geometry": { "type": "Point", "coordinates": [ 114.188879638848917, 22.27900615 ] } },
{ "type": "Feature", "id": "1329", "properties": { "date": "2023-01-23", "address": "Yoo Residence, Lower Floor, Flat E", "price": 26000, "changes": "--", "saleable_area(ft^2)": "538", "unit_rate": 48, "district": "Wan Chai District", "Tower": null, "Flat": "E", "Phase": null, "Block": null, "Rental": true, "Public Housing": false, "floor": 7.0, "latitude": 22.27900615, "longitude": 114.18887963884892 }, "geometry": { "type": "Point", "coordinates": [ 114.188879638848917, 22.27900615 ] } },
{ "type": "Feature", "id": "1334", "properties": { "date": "2023-01-20", "address": "111 Mount Butler Road, Block C & D, Lower Floor, Block C", "price": 59700, "changes": "--", "saleable_area(ft^2)": "2,287", "unit_rate": 26, "district": "Wan Chai District", "Tower": null, "Flat": null, "Phase": null, "Block": "C", "Rental": true, "Public Housing": false, "floor": 7.0, "latitude": 22.2718204, "longitude": 114.19586270842984 }, "geometry": { "type": "Point", "coordinates": [ 114.195862708429843, 22.2718204 ] } },
{ "type": "Feature", "id": "1335", "properties": { "date": "2023-01-20", "address": "Wilson Court, Middle Floor, Flat B", "price": 12500, "changes": "--", "saleable_area(ft^2)": "297", "unit_rate": 42, "district": "Wan Chai District", "Tower": null, "Flat": "B", "Phase": null, "Block": null, "Rental": true, "Public Housing": false, "floor": 13.0, "latitude": 22.2846652, "longitude": 114.19257074391795 }, "geometry": { "type": "Point", "coordinates": [ 114.192570743917955, 22.2846652 ] } },
{ "type": "Feature", "id": "1336", "properties": { "date": "2023-01-20", "address": "Viking Garden, Block A, 9/F, Flat 8", "price": 7900000, "changes": "--", "saleable_area(ft^2)": "449", "unit_rate": 17595, "district": "Wan Chai District", "Tower": null, "Flat": "8", "Phase": null, "Block": "A", "Rental": false, "Public Housing": false, "floor": 9.0, "latitude": 22.2839138, "longitude": 114.19142878615204 }, "geometry": { "type": "Point", "coordinates": [ 114.191428786152045, 22.2839138 ] } },
{ "type": "Feature", "id": "1337", "properties": { "date": "2023-01-20", "address": "The Consonance, 25/F, Flat F", "price": 8160000, "changes": "--", "saleable_area(ft^2)": "277", "unit_rate": 29445, "district": "Wan Chai District", "Tower": null, "Flat": "F", "Phase": null, "Block": null, "Rental": false, "Public Housing": false, "floor": 25.0, "latitude": 22.28622115, "longitude": 114.1920958 }, "geometry": { "type": "Point", "coordinates": [ 114.1920958, 22.28622115 ] } },
{ "type": "Feature", "id": "1340", "properties": { "date": "2023-01-19", "address": "The Legend, Tower 5, Lower Floor, Flat B", "price": 42000, "changes": "--", "saleable_area(ft^2)": "871", "unit_rate": 48, "district": "Wan Chai District", "Tower": "5", "Flat": "B", "Phase": null, "Block": null, "Rental": true, "Public Housing": false, "floor": 7.0, "latitude": 22.2750745, "longitude": 114.1952050409956 }, "geometry": { "type": "Point", "coordinates": [ 114.195205040995603, 22.2750745 ] } },
{ "type": "Feature", "id": "1341", "properties": { "date": "2023-01-19", "address": "Jupiter Terrace, Tower 1, 21/F, Flat A", "price": 7980000, "changes": "177%", "saleable_area(ft^2)": "478", "unit_rate": 16695, "district": "Wan Chai District", "Tower": "1", "Flat": "A", "Phase": null, "Block": null, "Rental": false, "Public Housing": false, "floor": 21.0, "latitude": 22.2865277, "longitude": 114.19223552054484 }, "geometry": { "type": "Point", "coordinates": [ 114.192235520544841, 22.2865277 ] } },
{ "type": "Feature", "id": "1343", "properties": { "date": "2023-01-18", "address": "Illumination Terrace, Block 2, Upper Floor, Flat F", "price": 21800, "changes": "--", "saleable_area(ft^2)": "568", "unit_rate": 38, "district": "Wan Chai District", "Tower": null, "Flat": "F", "Phase": null, "Block": "2", "Rental": true, "Public Housing": false, "floor": 22.0, "latitude": 22.277071, "longitude": 114.1936099 }, "geometry": { "type": "Point", "coordinates": [ 114.1936099, 22.277071 ] } },
{ "type": "Feature", "id": "1344", "properties": { "date": "2023-01-18", "address": "Lockhart House, Block A, Middle Floor, Flat 2", "price": 19000, "changes": "--", "saleable_area(ft^2)": "507", "unit_rate": 37, "district": "Wan Chai District", "Tower": null, "Flat": "2", "Phase": null, "Block": "A", "Rental": true, "Public Housing": false, "floor": 13.0, "latitude": 22.2802991, "longitude": 114.18149273908526 }, "geometry": { "type": "Point", "coordinates": [ 114.181492739085257, 22.2802991 ] } },
{ "type": "Feature", "id": "1346", "properties": { "date": "2023-01-17", "address": "Bay View Mansion, Block A, 19/F, Flat 7", "price": 7380000, "changes": "68%", "saleable_area(ft^2)": "692", "unit_rate": 10665, "district": "Wan Chai District", "Tower": null, "Flat": "7", "Phase": null, "Block": "A", "Rental": false, "Public Housing": false, "floor": 19.0, "latitude": 22.2795413, "longitude": 114.18879233383922 }, "geometry": { "type": "Point", "coordinates": [ 114.188792333839217, 22.2795413 ] } },
{ "type": "Feature", "id": "1351", "properties": { "date": "2023-01-16", "address": "Park Haven, Middle Floor, Flat B", "price": 32500, "changes": "--", "saleable_area(ft^2)": "581", "unit_rate": 56, "district": "Wan Chai District", "Tower": null, "Flat": "B", "Phase": null, "Block": null, "Rental": true, "Public Housing": false, "floor": 13.0, "latitude": 22.2777189, "longitude": 114.1871914160196 }, "geometry": { "type": "Point", "coordinates": [ 114.187191416019601, 22.2777189 ] } },
{ "type": "Feature", "id": "1355", "properties": { "date": "2023-01-15", "address": "Park View Mansion, Lower Floor, Flat A", "price": 20000, "changes": "--", "saleable_area(ft^2)": "776", "unit_rate": 26, "district": "Wan Chai District", "Tower": null, "Flat": "A", "Phase": null, "Block": null, "Rental": true, "Public Housing": false, "floor": 7.0, "latitude": 22.2832294, "longitude": 114.19216391092674 }, "geometry": { "type": "Point", "coordinates": [ 114.192163910926737, 22.2832294 ] } },
{ "type": "Feature", "id": "1356", "properties": { "date": "2023-01-15", "address": "Tai Hang Terrace, Block B, Upper Floor, Flat 7", "price": 26000, "changes": "--", "saleable_area(ft^2)": "626", "unit_rate": 42, "district": "Wan Chai District", "Tower": null, "Flat": "7", "Phase": null, "Block": "B", "Rental": true, "Public Housing": false, "floor": 22.0, "latitude": 22.2742121, "longitude": 114.19397553810032 }, "geometry": { "type": "Point", "coordinates": [ 114.193975538100318, 22.2742121 ] } },
{ "type": "Feature", "id": "1357", "properties": { "date": "2023-01-15", "address": "The Signature, Lower Floor, Flat A", "price": 75000, "changes": "--", "saleable_area(ft^2)": "1,542", "unit_rate": 49, "district": "Wan Chai District", "Tower": null, "Flat": "A", "Phase": null, "Block": null, "Rental": true, "Public Housing": false, "floor": 7.0, "latitude": 22.27525015, "longitude": 114.19450098285004 }, "geometry": { "type": "Point", "coordinates": [ 114.194500982850045, 22.27525015 ] } },
{ "type": "Feature", "id": "1358", "properties": { "date": "2023-01-15", "address": "The Consonance, Upper Floor, Flat J", "price": 11800, "changes": "--", "saleable_area(ft^2)": "196", "unit_rate": 60, "district": "Wan Chai District", "Tower": null, "Flat": "J", "Phase": null, "Block": null, "Rental": true, "Public Housing": false, "floor": 22.0, "latitude": 22.28622115, "longitude": 114.1920958 }, "geometry": { "type": "Point", "coordinates": [ 114.1920958, 22.28622115 ] } },
{ "type": "Feature", "id": "1359", "properties": { "date": "2023-01-15", "address": "The Signature, Lower Floor, Flat B", "price": 67000, "changes": "--", "saleable_area(ft^2)": "1,542", "unit_rate": 43, "district": "Wan Chai District", "Tower": null, "Flat": "B", "Phase": null, "Block": null, "Rental": true, "Public Housing": false, "floor": 7.0, "latitude": 22.27525015, "longitude": 114.19450098285004 }, "geometry": { "type": "Point", "coordinates": [ 114.194500982850045, 22.27525015 ] } },
{ "type": "Feature", "id": "1364", "properties": { "date": "2023-01-15", "address": "Illumination Terrace, Block 1, Middle Floor, Flat G", "price": 21000, "changes": "--", "saleable_area(ft^2)": "568", "unit_rate": 37, "district": "Wan Chai District", "Tower": null, "Flat": "G", "Phase": null, "Block": "1", "Rental": true, "Public Housing": false, "floor": 13.0, "latitude": 22.277071, "longitude": 114.1936099 }, "geometry": { "type": "Point", "coordinates": [ 114.1936099, 22.277071 ] } },
{ "type": "Feature", "id": "1367", "properties": { "date": "2023-01-13", "address": "Po Hon Building, 14/F, Flat D", "price": 5750000, "changes": "93%", "saleable_area(ft^2)": "503", "unit_rate": 11431, "district": "Wan Chai District", "Tower": null, "Flat": "D", "Phase": null, "Block": null, "Rental": false, "Public Housing": false, "floor": 14.0, "latitude": 22.2806801, "longitude": 114.18254487751132 }, "geometry": { "type": "Point", "coordinates": [ 114.182544877511319, 22.2806801 ] } },
{ "type": "Feature", "id": "1368", "properties": { "date": "2023-01-13", "address": "Po Hon Building, 9/F, Flat C", "price": 5380000, "changes": "327%", "saleable_area(ft^2)": "478", "unit_rate": 11255, "district": "Wan Chai District", "Tower": null, "Flat": "C", "Phase": null, "Block": null, "Rental": false, "Public Housing": false, "floor": 9.0, "latitude": 22.2806801, "longitude": 114.18254487751132 }, "geometry": { "type": "Point", "coordinates": [ 114.182544877511319, 22.2806801 ] } },
{ "type": "Feature", "id": "1371", "properties": { "date": "2023-01-12", "address": "Pak Shing Building, 7/F, Flat D", "price": 5200000, "changes": "-13%", "saleable_area(ft^2)": "314", "unit_rate": 16561, "district": "Wan Chai District", "Tower": null, "Flat": "D", "Phase": null, "Block": null, "Rental": false, "Public Housing": false, "floor": 7.0, "latitude": 22.2816693, "longitude": 114.1921265785551 }, "geometry": { "type": "Point", "coordinates": [ 114.192126578555104, 22.2816693 ] } },
{ "type": "Feature", "id": "1374", "properties": { "date": "2023-01-11", "address": "Ronsdale Garden, Block 2, 8/F, Flat F", "price": 13500000, "changes": "47%", "saleable_area(ft^2)": "694", "unit_rate": 19452, "district": "Wan Chai District", "Tower": null, "Flat": "F", "Phase": null, "Block": "2", "Rental": false, "Public Housing": false, "floor": 8.0, "latitude": 22.27495735, "longitude": 114.1956766432771 }, "geometry": { "type": "Point", "coordinates": [ 114.195676643277096, 22.27495735 ] } },
{ "type": "Feature", "id": "1375", "properties": { "date": "2023-01-11", "address": "Elizabeth House, Block A, 8/F, Flat 3", "price": 12000000, "changes": "--", "saleable_area(ft^2)": "698", "unit_rate": 17192, "district": "Wan Chai District", "Tower": null, "Flat": "3", "Phase": null, "Block": "A", "Rental": false, "Public Housing": false, "floor": 8.0, "latitude": 22.2808353, "longitude": 114.18142617820038 }, "geometry": { "type": "Point", "coordinates": [ 114.181426178200383, 22.2808353 ] } },
{ "type": "Feature", "id": "1377", "properties": { "date": "2023-01-10", "address": "Viking Garden, Block A, Lower Floor, Flat 3", "price": 16500, "changes": "--", "saleable_area(ft^2)": "452", "unit_rate": 37, "district": "Wan Chai District", "Tower": null, "Flat": "3", "Phase": null, "Block": "A", "Rental": true, "Public Housing": false, "floor": 7.0, "latitude": 22.2839138, "longitude": 114.19142878615204 }, "geometry": { "type": "Point", "coordinates": [ 114.191428786152045, 22.2839138 ] } },
{ "type": "Feature", "id": "1383", "properties": { "date": "2023-01-09", "address": "Happy Mansion, 5/F, No. 64 (Front)", "price": 9000000, "changes": "--", "saleable_area(ft^2)": "455", "unit_rate": 19780, "district": "Wan Chai District", "Tower": null, "Flat": null, "Phase": null, "Block": null, "Rental": false, "Public Housing": false, "floor": 5.0, "latitude": 22.27940735, "longitude": 114.18320099649318 }, "geometry": { "type": "Point", "coordinates": [ 114.183200996493184, 22.27940735 ] } },
{ "type": "Feature", "id": "1385", "properties": { "date": "2023-01-08", "address": "Viking Garden, Block A, Lower Floor, Flat 3", "price": 18000, "changes": "--", "saleable_area(ft^2)": "452", "unit_rate": 40, "district": "Wan Chai District", "Tower": null, "Flat": "3", "Phase": null, "Block": "A", "Rental": true, "Public Housing": false, "floor": 7.0, "latitude": 22.2839138, "longitude": 114.19142878615204 }, "geometry": { "type": "Point", "coordinates": [ 114.191428786152045, 22.2839138 ] } },
{ "type": "Feature", "id": "1387", "properties": { "date": "2023-01-07", "address": "Illumination Terrace, Block 2, Middle Floor, Flat A", "price": 28200, "changes": "--", "saleable_area(ft^2)": "731", "unit_rate": 39, "district": "Wan Chai District", "Tower": null, "Flat": "A", "Phase": null, "Block": "2", "Rental": true, "Public Housing": false, "floor": 13.0, "latitude": 22.277071, "longitude": 114.1936099 }, "geometry": { "type": "Point", "coordinates": [ 114.1936099, 22.277071 ] } },
{ "type": "Feature", "id": "1388", "properties": { "date": "2023-01-07", "address": "Ronsdale Garden, Block 2, Upper Floor, Flat E", "price": 33000, "changes": "--", "saleable_area(ft^2)": "694", "unit_rate": 48, "district": "Wan Chai District", "Tower": null, "Flat": "E", "Phase": null, "Block": "2", "Rental": true, "Public Housing": false, "floor": 22.0, "latitude": 22.27495735, "longitude": 114.1956766432771 }, "geometry": { "type": "Point", "coordinates": [ 114.195676643277096, 22.27495735 ] } },
{ "type": "Feature", "id": "1392", "properties": { "date": "2023-01-05", "address": "Serenade, Tower 1, Lower Floor, Flat A", "price": 37000, "changes": "--", "saleable_area(ft^2)": "788", "unit_rate": 47, "district": "Wan Chai District", "Tower": "1", "Flat": "A", "Phase": null, "Block": null, "Rental": true, "Public Housing": false, "floor": 7.0, "latitude": 22.27665605, "longitude": 114.19543991171612 }, "geometry": { "type": "Point", "coordinates": [ 114.195439911716122, 22.27665605 ] } },
{ "type": "Feature", "id": "1395", "properties": { "date": "2023-01-05", "address": "Park Towers, Tower 1, Lower Floor, Flat C", "price": 50000, "changes": "--", "saleable_area(ft^2)": "998", "unit_rate": 50, "district": "Wan Chai District", "Tower": "1", "Flat": "C", "Phase": null, "Block": null, "Rental": true, "Public Housing": false, "floor": 7.0, "latitude": 22.28257685, "longitude": 114.1916623280402 }, "geometry": { "type": "Point", "coordinates": [ 114.191662328040195, 22.28257685 ] } },
{ "type": "Feature", "id": "1396", "properties": { "date": "2023-01-04", "address": "Vincent Mansion, High Block, Upper Floor, Flat B", "price": 13000, "changes": "--", "saleable_area(ft^2)": "251", "unit_rate": 52, "district": "Wan Chai District", "Tower": null, "Flat": "B", "Phase": null, "Block": null, "Rental": true, "Public Housing": false, "floor": 22.0, "latitude": 22.2860038, "longitude": 114.19219685 }, "geometry": { "type": "Point", "coordinates": [ 114.19219685, 22.2860038 ] } },
{ "type": "Feature", "id": "1397", "properties": { "date": "2023-01-04", "address": "Dragon Pride, Middle Floor, Flat A", "price": 11200000, "changes": "--", "saleable_area(ft^2)": "575", "unit_rate": 19478, "district": "Wan Chai District", "Tower": null, "Flat": "A", "Phase": null, "Block": null, "Rental": false, "Public Housing": false, "floor": 13.0, "latitude": 22.2831005, "longitude": 114.19360027645116 }, "geometry": { "type": "Point", "coordinates": [ 114.193600276451164, 22.2831005 ] } },
{ "type": "Feature", "id": "1399", "properties": { "date": "2023-01-04", "address": "Golden Dragon Building, 18/F, Flat D", "price": 5300000, "changes": "-2%", "saleable_area(ft^2)": "364", "unit_rate": 14560, "district": "Wan Chai District", "Tower": null, "Flat": "D", "Phase": null, "Block": null, "Rental": false, "Public Housing": false, "floor": 18.0, "latitude": 22.2792282, "longitude": 114.18257225478476 }, "geometry": { "type": "Point", "coordinates": [ 114.182572254784759, 22.2792282 ] } },
{ "type": "Feature", "id": "1402", "properties": { "date": "2023-01-03", "address": "Vincent Mansion, High Block, Middle Floor, Flat C", "price": 12800, "changes": "--", "saleable_area(ft^2)": "251", "unit_rate": 51, "district": "Wan Chai District", "Tower": null, "Flat": "C", "Phase": null, "Block": null, "Rental": true, "Public Housing": false, "floor": 13.0, "latitude": 22.2860038, "longitude": 114.19219685 }, "geometry": { "type": "Point", "coordinates": [ 114.19219685, 22.2860038 ] } },
{ "type": "Feature", "id": "1404", "properties": { "date": "2023-01-03", "address": "Paterson Building, Block A, 16/F, Flat A5", "price": 5500000, "changes": "-22%", "saleable_area(ft^2)": "498", "unit_rate": 11044, "district": "Wan Chai District", "Tower": null, "Flat": "A", "Phase": null, "Block": "A", "Rental": false, "Public Housing": false, "floor": 16.0, "latitude": 22.28108035, "longitude": 114.18514496887144 }, "geometry": { "type": "Point", "coordinates": [ 114.185144968871441, 22.28108035 ] } },
{ "type": "Feature", "id": "1405", "properties": { "date": "2023-01-03", "address": "City Mansion, 4/F, Flat C", "price": 5300000, "changes": "--", "saleable_area(ft^2)": "361", "unit_rate": 14681, "district": "Wan Chai District", "Tower": null, "Flat": "C", "Phase": null, "Block": null, "Rental": false, "Public Housing": false, "floor": 4.0, "latitude": 22.28122485, "longitude": 114.18278790513487 }, "geometry": { "type": "Point", "coordinates": [ 114.182787905134873, 22.28122485 ] } },
{ "type": "Feature", "id": "1406", "properties": { "date": "2023-01-03", "address": "Ronsdale Garden, Block 1, 8/F, Flat B", "price": 19080000, "changes": "27%", "saleable_area(ft^2)": "976", "unit_rate": 19549, "district": "Wan Chai District", "Tower": null, "Flat": "B", "Phase": null, "Block": "1", "Rental": false, "Public Housing": false, "floor": 8.0, "latitude": 22.27495735, "longitude": 114.1956766432771 }, "geometry": { "type": "Point", "coordinates": [ 114.195676643277096, 22.27495735 ] } },
{ "type": "Feature", "id": "1407", "properties": { "date": "2023-01-03", "address": "Golden Dragon Building, 15/F, Flat D", "price": 5780000, "changes": "-8%", "saleable_area(ft^2)": "364", "unit_rate": 15879, "district": "Wan Chai District", "Tower": null, "Flat": "D", "Phase": null, "Block": null, "Rental": false, "Public Housing": false, "floor": 15.0, "latitude": 22.2792282, "longitude": 114.18257225478476 }, "geometry": { "type": "Point", "coordinates": [ 114.182572254784759, 22.2792282 ] } },
{ "type": "Feature", "id": "1411", "properties": { "date": "2023-01-02", "address": "Jones Hive, Lower Floor, Flat A", "price": 29000, "changes": "--", "saleable_area(ft^2)": "559", "unit_rate": 52, "district": "Wan Chai District", "Tower": null, "Flat": "A", "Phase": null, "Block": null, "Rental": true, "Public Housing": false, "floor": 7.0, "latitude": 22.27826105, "longitude": 114.1911519 }, "geometry": { "type": "Point", "coordinates": [ 114.1911519, 22.27826105 ] } },
{ "type": "Feature", "id": "1413", "properties": { "date": "2023-01-01", "address": "Viking Villas, Block A, Lower Floor, Flat 13", "price": 28500, "changes": "--", "saleable_area(ft^2)": "700", "unit_rate": 41, "district": "Wan Chai District", "Tower": null, "Flat": "13", "Phase": null, "Block": "A", "Rental": true, "Public Housing": false, "floor": 7.0, "latitude": 22.28557795, "longitude": 114.19441349045272 }, "geometry": { "type": "Point", "coordinates": [ 114.194413490452717, 22.28557795 ] } },
{ "type": "Feature", "id": "1415", "properties": { "date": "2023-01-01", "address": "Tai Hang Terrace, Block B, Middle Floor, Flat 12", "price": 22000, "changes": "--", "saleable_area(ft^2)": "527", "unit_rate": 42, "district": "Wan Chai District", "Tower": null, "Flat": "12", "Phase": null, "Block": "B", "Rental": true, "Public Housing": false, "floor": 13.0, "latitude": 22.2742121, "longitude": 114.19397553810032 }, "geometry": { "type": "Point", "coordinates": [ 114.193975538100318, 22.2742121 ] } },
{ "type": "Feature", "id": "1418", "properties": { "date": "2023-01-01", "address": "The Consonance, Lower Floor, Flat A", "price": 16500, "changes": "--", "saleable_area(ft^2)": "267", "unit_rate": 62, "district": "Wan Chai District", "Tower": null, "Flat": "A", "Phase": null, "Block": null, "Rental": true, "Public Housing": false, "floor": 7.0, "latitude": 22.28622115, "longitude": 114.1920958 }, "geometry": { "type": "Point", "coordinates": [ 114.1920958, 22.28622115 ] } },
{ "type": "Feature", "id": "1420", "properties": { "date": "2023-01-01", "address": "Warrenwoods, Upper Floor, Flat D", "price": 20000, "changes": "--", "saleable_area(ft^2)": "384", "unit_rate": 52, "district": "Wan Chai District", "Tower": null, "Flat": "D", "Phase": null, "Block": null, "Rental": true, "Public Housing": false, "floor": 22.0, "latitude": 22.27811235, "longitude": 114.19164496807019 }, "geometry": { "type": "Point", "coordinates": [ 114.191644968070193, 22.27811235 ] } },
{ "type": "Feature", "id": "1422", "properties": { "date": "2023-01-01", "address": "Kam Yuen Mansion, Upper Floor, No. 90", "price": 11500, "changes": "--", "saleable_area(ft^2)": "612", "unit_rate": 19, "district": "Wan Chai District", "Tower": null, "Flat": null, "Phase": null, "Block": null, "Rental": true, "Public Housing": false, "floor": 22.0, "latitude": 22.28453125, "longitude": 114.19183420088244 }, "geometry": { "type": "Point", "coordinates": [ 114.19183420088244, 22.28453125 ] } },
{ "type": "Feature", "id": "1426", "properties": { "date": "2023-01-01", "address": "Serenade, Tower 2, Middle Floor, Flat A", "price": 39000, "changes": "--", "saleable_area(ft^2)": "788", "unit_rate": 49, "district": "Wan Chai District", "Tower": "2", "Flat": "A", "Phase": null, "Block": null, "Rental": true, "Public Housing": false, "floor": 13.0, "latitude": 22.27665605, "longitude": 114.19543991171612 }, "geometry": { "type": "Point", "coordinates": [ 114.195439911716122, 22.27665605 ] } },
{ "type": "Feature", "id": "1427", "properties": { "date": "2023-01-01", "address": "Illumination Terrace, Block 2, Upper Floor, Flat H", "price": 22500, "changes": "--", "saleable_area(ft^2)": "616", "unit_rate": 37, "district": "Wan Chai District", "Tower": null, "Flat": "H", "Phase": null, "Block": "2", "Rental": true, "Public Housing": false, "floor": 22.0, "latitude": 22.277071, "longitude": 114.1936099 }, "geometry": { "type": "Point", "coordinates": [ 114.1936099, 22.277071 ] } },
{ "type": "Feature", "id": "1429", "properties": { "date": "2023-01-01", "address": "Park Haven, Upper Floor, Flat A", "price": 22500, "changes": "--", "saleable_area(ft^2)": "465", "unit_rate": 48, "district": "Wan Chai District", "Tower": null, "Flat": "A", "Phase": null, "Block": null, "Rental": true, "Public Housing": false, "floor": 22.0, "latitude": 22.2777189, "longitude": 114.1871914160196 }, "geometry": { "type": "Point", "coordinates": [ 114.187191416019601, 22.2777189 ] } },
{ "type": "Feature", "id": "1431", "properties": { "date": "2023-01-01", "address": "Park Haven, Lower Floor, Flat D", "price": 28500, "changes": "--", "saleable_area(ft^2)": "588", "unit_rate": 48, "district": "Wan Chai District", "Tower": null, "Flat": "D", "Phase": null, "Block": null, "Rental": true, "Public Housing": false, "floor": 7.0, "latitude": 22.2777189, "longitude": 114.1871914160196 }, "geometry": { "type": "Point", "coordinates": [ 114.187191416019601, 22.2777189 ] } },
{ "type": "Feature", "id": "1434", "properties": { "date": "2022-12-31", "address": "16 Glass Street, Kam Tao Building, Lower Floor, Flat C", "price": 17500, "changes": "--", "saleable_area(ft^2)": "703", "unit_rate": 25, "district": "Wan Chai District", "Tower": null, "Flat": "C", "Phase": null, "Block": null, "Rental": true, "Public Housing": false, "floor": 7.0, "latitude": 22.2862863, "longitude": 114.1907417 }, "geometry": { "type": "Point", "coordinates": [ 114.1907417, 22.2862863 ] } },
{ "type": "Feature", "id": "1440", "properties": { "date": "2022-12-28", "address": "Ronsdale Garden, Block 1, Upper Floor, Flat E", "price": 33000, "changes": "--", "saleable_area(ft^2)": "694", "unit_rate": 48, "district": "Wan Chai District", "Tower": null, "Flat": "E", "Phase": null, "Block": "1", "Rental": true, "Public Housing": false, "floor": 22.0, "latitude": 22.27495735, "longitude": 114.1956766432771 }, "geometry": { "type": "Point", "coordinates": [ 114.195676643277096, 22.27495735 ] } },
{ "type": "Feature", "id": "1443", "properties": { "date": "2022-12-25", "address": "Viking Villas, Block A, Lower Floor, Flat 15", "price": 26500, "changes": "--", "saleable_area(ft^2)": "700", "unit_rate": 38, "district": "Wan Chai District", "Tower": null, "Flat": "15", "Phase": null, "Block": "A", "Rental": true, "Public Housing": false, "floor": 7.0, "latitude": 22.28557795, "longitude": 114.19441349045272 }, "geometry": { "type": "Point", "coordinates": [ 114.194413490452717, 22.28557795 ] } },
{ "type": "Feature", "id": "1444", "properties": { "date": "2022-12-25", "address": "Jones Hive, Upper Floor, Flat D", "price": 21000, "changes": "--", "saleable_area(ft^2)": "333", "unit_rate": 63, "district": "Wan Chai District", "Tower": null, "Flat": "D", "Phase": null, "Block": null, "Rental": true, "Public Housing": false, "floor": 22.0, "latitude": 22.27826105, "longitude": 114.1911519 }, "geometry": { "type": "Point", "coordinates": [ 114.1911519, 22.27826105 ] } },
{ "type": "Feature", "id": "1447", "properties": { "date": "2022-12-24", "address": "Chuang's-On-The-Park, Middle Floor, Flat B", "price": 18000, "changes": "--", "saleable_area(ft^2)": "413", "unit_rate": 44, "district": "Wan Chai District", "Tower": null, "Flat": "B", "Phase": null, "Block": null, "Rental": true, "Public Housing": false, "floor": 13.0, "latitude": 22.2816298, "longitude": 114.19236292734377 }, "geometry": { "type": "Point", "coordinates": [ 114.192362927343765, 22.2816298 ] } },
{ "type": "Feature", "id": "1449", "properties": { "date": "2022-12-23", "address": "Pearl City Mansion, Block C, Middle Floor, Flat C6", "price": 18000, "changes": "--", "saleable_area(ft^2)": "493", "unit_rate": 37, "district": "Wan Chai District", "Tower": null, "Flat": "C", "Phase": null, "Block": "C", "Rental": true, "Public Housing": false, "floor": 13.0, "latitude": 22.28087265, "longitude": 114.18590863400178 }, "geometry": { "type": "Point", "coordinates": [ 114.185908634001777, 22.28087265 ] } },
{ "type": "Feature", "id": "1450", "properties": { "date": "2022-12-23", "address": "Chuang's-On-The-Park, Upper Floor, Flat D", "price": 8700000, "changes": "--", "saleable_area(ft^2)": "518", "unit_rate": 16795, "district": "Wan Chai District", "Tower": null, "Flat": "D", "Phase": null, "Block": null, "Rental": false, "Public Housing": false, "floor": 22.0, "latitude": 22.2816298, "longitude": 114.19236292734377 }, "geometry": { "type": "Point", "coordinates": [ 114.192362927343765, 22.2816298 ] } },
{ "type": "Feature", "id": "1455", "properties": { "date": "2022-12-22", "address": "16 Glass Street, Kam Tao Building, 20/F, Flat F", "price": 7600000, "changes": "-4%", "saleable_area(ft^2)": "628", "unit_rate": 12102, "district": "Wan Chai District", "Tower": null, "Flat": "F", "Phase": null, "Block": null, "Rental": false, "Public Housing": false, "floor": 20.0, "latitude": 22.2862863, "longitude": 114.1907417 }, "geometry": { "type": "Point", "coordinates": [ 114.1907417, 22.2862863 ] } },
{ "type": "Feature", "id": "1457", "properties": { "date": "2022-12-22", "address": "Serenade, Tower 1, 20/F, Flat B", "price": 18500000, "changes": "--", "saleable_area(ft^2)": "788", "unit_rate": 23477, "district": "Wan Chai District", "Tower": "1", "Flat": "B", "Phase": null, "Block": null, "Rental": false, "Public Housing": false, "floor": 20.0, "latitude": 22.27665605, "longitude": 114.19543991171612 }, "geometry": { "type": "Point", "coordinates": [ 114.195439911716122, 22.27665605 ] } },
{ "type": "Feature", "id": "1458", "properties": { "date": "2022-12-22", "address": "1 Tai Hang Road, 4/F, Flat C", "price": 10200000, "changes": "155%", "saleable_area(ft^2)": "575", "unit_rate": 17739, "district": "Wan Chai District", "Tower": null, "Flat": "C", "Phase": null, "Block": null, "Rental": false, "Public Housing": false, "floor": 4.0, "latitude": 22.27804525, "longitude": 114.19140680427442 }, "geometry": { "type": "Point", "coordinates": [ 114.191406804274422, 22.27804525 ] } },
{ "type": "Feature", "id": "1461", "properties": { "date": "2022-12-22", "address": "Viking Garden, Block A, 1/F, Flat 1", "price": 7500000, "changes": "--", "saleable_area(ft^2)": "523", "unit_rate": 14340, "district": "Wan Chai District", "Tower": null, "Flat": "1", "Phase": null, "Block": "A", "Rental": false, "Public Housing": false, "floor": 1.0, "latitude": 22.2839138, "longitude": 114.19142878615204 }, "geometry": { "type": "Point", "coordinates": [ 114.191428786152045, 22.2839138 ] } },
{ "type": "Feature", "id": "1462", "properties": { "date": "2022-12-21", "address": "Ronsdale Garden, Block 2, 7/F, Flat C", "price": 21000000, "changes": "109%", "saleable_area(ft^2)": "976", "unit_rate": 21516, "district": "Wan Chai District", "Tower": null, "Flat": "C", "Phase": null, "Block": "2", "Rental": false, "Public Housing": false, "floor": 7.0, "latitude": 22.27495735, "longitude": 114.1956766432771 }, "geometry": { "type": "Point", "coordinates": [ 114.195676643277096, 22.27495735 ] } },
{ "type": "Feature", "id": "1465", "properties": { "date": "2022-12-20", "address": "Hoi To Court, Lower Floor, Flat E", "price": 8320000, "changes": "--", "saleable_area(ft^2)": "773", "unit_rate": 10763, "district": "Wan Chai District", "Tower": null, "Flat": "E", "Phase": null, "Block": null, "Rental": false, "Public Housing": false, "floor": 7.0, "latitude": 22.28167775, "longitude": 114.1833505125757 }, "geometry": { "type": "Point", "coordinates": [ 114.1833505125757, 22.28167775 ] } },
{ "type": "Feature", "id": "1466", "properties": { "date": "2022-12-20", "address": "Carnation Court, Upper Floor, Flat A", "price": 75000, "changes": "--", "saleable_area(ft^2)": "1,348", "unit_rate": 56, "district": "Wan Chai District", "Tower": null, "Flat": "A", "Phase": null, "Block": null, "Rental": true, "Public Housing": false, "floor": 22.0, "latitude": 22.27567875, "longitude": 114.1928227552048 }, "geometry": { "type": "Point", "coordinates": [ 114.192822755204801, 22.27567875 ] } },
{ "type": "Feature", "id": "1470", "properties": { "date": "2022-12-20", "address": "Butler Towers, Block Ef, Middle Floor, Flat F", "price": 67000, "changes": "--", "saleable_area(ft^2)": "1,492", "unit_rate": 45, "district": "Wan Chai District", "Tower": null, "Flat": "F", "Phase": null, "Block": "E", "Rental": true, "Public Housing": false, "floor": 13.0, "latitude": 22.26991435, "longitude": 114.19592254679937 }, "geometry": { "type": "Point", "coordinates": [ 114.195922546799366, 22.26991435 ] } },
{ "type": "Feature", "id": "1471", "properties": { "date": "2022-12-19", "address": "Elizabeth House, Block B, Lower Floor, Flat 4", "price": 20000, "changes": "--", "saleable_area(ft^2)": "615", "unit_rate": 33, "district": "Wan Chai District", "Tower": null, "Flat": "4", "Phase": null, "Block": "B", "Rental": true, "Public Housing": false, "floor": 7.0, "latitude": 22.2808353, "longitude": 114.18142617820038 }, "geometry": { "type": "Point", "coordinates": [ 114.181426178200383, 22.2808353 ] } },
{ "type": "Feature", "id": "1472", "properties": { "date": "2022-12-19", "address": "Kailey Court, 14/F, Flat D", "price": 5550000, "changes": "135%", "saleable_area(ft^2)": "356", "unit_rate": 15590, "district": "Wan Chai District", "Tower": null, "Flat": "D", "Phase": null, "Block": null, "Rental": false, "Public Housing": false, "floor": 14.0, "latitude": 22.28571, "longitude": 114.19273600947631 }, "geometry": { "type": "Point", "coordinates": [ 114.192736009476306, 22.28571 ] } },
{ "type": "Feature", "id": "1474", "properties": { "date": "2022-12-19", "address": "Chuang's-On-The-Park, 30/F, Flat A", "price": 12880000, "changes": "--", "saleable_area(ft^2)": "530", "unit_rate": 24302, "district": "Wan Chai District", "Tower": null, "Flat": "A", "Phase": null, "Block": null, "Rental": false, "Public Housing": false, "floor": 30.0, "latitude": 22.2816298, "longitude": 114.19236292734377 }, "geometry": { "type": "Point", "coordinates": [ 114.192362927343765, 22.2816298 ] } },
{ "type": "Feature", "id": "1475", "properties": { "date": "2022-12-18", "address": "The Consonance, Middle Floor, Flat H", "price": 12500, "changes": "--", "saleable_area(ft^2)": "200", "unit_rate": 63, "district": "Wan Chai District", "Tower": null, "Flat": "H", "Phase": null, "Block": null, "Rental": true, "Public Housing": false, "floor": 13.0, "latitude": 22.28622115, "longitude": 114.1920958 }, "geometry": { "type": "Point", "coordinates": [ 114.1920958, 22.28622115 ] } },
{ "type": "Feature", "id": "1478", "properties": { "date": "2022-12-16", "address": "Jolly House, Lower Floor, Flat C", "price": 9000, "changes": "--", "saleable_area(ft^2)": "159", "unit_rate": 57, "district": "Wan Chai District", "Tower": null, "Flat": "C", "Phase": null, "Block": null, "Rental": true, "Public Housing": false, "floor": 7.0, "latitude": 22.27960235, "longitude": 114.19265670832669 }, "geometry": { "type": "Point", "coordinates": [ 114.192656708326695, 22.27960235 ] } },
{ "type": "Feature", "id": "1483", "properties": { "date": "2022-12-15", "address": "Illumination Terrace, Block 2, Upper Floor, Flat F", "price": 21500, "changes": "--", "saleable_area(ft^2)": "568", "unit_rate": 38, "district": "Wan Chai District", "Tower": null, "Flat": "F", "Phase": null, "Block": "2", "Rental": true, "Public Housing": false, "floor": 22.0, "latitude": 22.277071, "longitude": 114.1936099 }, "geometry": { "type": "Point", "coordinates": [ 114.1936099, 22.277071 ] } },
{ "type": "Feature", "id": "1484", "properties": { "date": "2022-12-15", "address": "Serenade, Tower 2, Middle Floor, Flat A", "price": 80000, "changes": "--", "saleable_area(ft^2)": "1,941", "unit_rate": 41, "district": "Wan Chai District", "Tower": "2", "Flat": "A", "Phase": null, "Block": null, "Rental": true, "Public Housing": false, "floor": 13.0, "latitude": 22.27665605, "longitude": 114.19543991171612 }, "geometry": { "type": "Point", "coordinates": [ 114.195439911716122, 22.27665605 ] } },
{ "type": "Feature", "id": "1488", "properties": { "date": "2022-12-15", "address": "The Legend, Tower 1, Upper Floor, Flat A", "price": 70000, "changes": "--", "saleable_area(ft^2)": "1,104", "unit_rate": 63, "district": "Wan Chai District", "Tower": "1", "Flat": "A", "Phase": null, "Block": null, "Rental": true, "Public Housing": false, "floor": 22.0, "latitude": 22.2750745, "longitude": 114.1952050409956 }, "geometry": { "type": "Point", "coordinates": [ 114.195205040995603, 22.2750745 ] } },
{ "type": "Feature", "id": "1494", "properties": { "date": "2022-12-15", "address": "Bay View Mansion, Block C, 12/F, Flat 3", "price": 7060000, "changes": "-20%", "saleable_area(ft^2)": "635", "unit_rate": 11110, "district": "Wan Chai District", "Tower": null, "Flat": "3", "Phase": null, "Block": "C", "Rental": false, "Public Housing": false, "floor": 12.0, "latitude": 22.2795413, "longitude": 114.18879233383922 }, "geometry": { "type": "Point", "coordinates": [ 114.188792333839217, 22.2795413 ] } },
{ "type": "Feature", "id": "1495", "properties": { "date": "2022-12-15", "address": "Jupiter Terrace, Tower 1, 27/F, Flat C", "price": 6500000, "changes": "147%", "saleable_area(ft^2)": "420", "unit_rate": 15476, "district": "Wan Chai District", "Tower": "1", "Flat": "C", "Phase": null, "Block": null, "Rental": false, "Public Housing": false, "floor": 27.0, "latitude": 22.2865277, "longitude": 114.19223552054484 }, "geometry": { "type": "Point", "coordinates": [ 114.192235520544841, 22.2865277 ] } },
{ "type": "Feature", "id": "1497", "properties": { "date": "2022-12-14", "address": "Island Building, 12/F, Flat B", "price": 4840000, "changes": "88%", "saleable_area(ft^2)": "529", "unit_rate": 9149, "district": "Wan Chai District", "Tower": null, "Flat": "B", "Phase": null, "Block": null, "Rental": false, "Public Housing": false, "floor": 12.0, "latitude": 22.27974225, "longitude": 114.18159919540815 }, "geometry": { "type": "Point", "coordinates": [ 114.181599195408154, 22.27974225 ] } },
{ "type": "Feature", "id": "1498", "properties": { "date": "2022-12-14", "address": "54-60 Percival Street, 1/F, No. 60 (Rear)", "price": 8350000, "changes": "626%", "saleable_area(ft^2)": "334", "unit_rate": 25000, "district": "Wan Chai District", "Tower": null, "Flat": null, "Phase": null, "Block": null, "Rental": false, "Public Housing": false, "floor": 1.0, "latitude": 22.2803388, "longitude": 114.1824762 }, "geometry": { "type": "Point", "coordinates": [ 114.1824762, 22.2803388 ] } },
{ "type": "Feature", "id": "1499", "properties": { "date": "2022-12-14", "address": "Jupiter Terrace, Tower 2, 10/F, Flat C", "price": 5850000, "changes": "109%", "saleable_area(ft^2)": "420", "unit_rate": 13924, "district": "Wan Chai District", "Tower": "2", "Flat": "C", "Phase": null, "Block": null, "Rental": false, "Public Housing": false, "floor": 10.0, "latitude": 22.2865277, "longitude": 114.19223552054484 }, "geometry": { "type": "Point", "coordinates": [ 114.192235520544841, 22.2865277 ] } },
{ "type": "Feature", "id": "1500", "properties": { "date": "2022-12-14", "address": "Leigyinn Building, 58-64A Leighton Road, 7/F, No. 58A", "price": 11800000, "changes": "--", "saleable_area(ft^2)": "998", "unit_rate": 11824, "district": "Wan Chai District", "Tower": null, "Flat": null, "Phase": null, "Block": null, "Rental": false, "Public Housing": false, "floor": 7.0, "latitude": 22.2771327, "longitude": 114.18436477681892 }, "geometry": { "type": "Point", "coordinates": [ 114.184364776818924, 22.2771327 ] } },
{ "type": "Feature", "id": "1501", "properties": { "date": "2022-12-13", "address": "Yik Kwan Villa, 1/F, Flat A", "price": 16380000, "changes": "361%", "saleable_area(ft^2)": "1,445", "unit_rate": 11336, "district": "Wan Chai District", "Tower": null, "Flat": "A", "Phase": null, "Block": null, "Rental": false, "Public Housing": false, "floor": 1.0, "latitude": 22.2765071, "longitude": 114.19321114677166 }, "geometry": { "type": "Point", "coordinates": [ 114.19321114677166, 22.2765071 ] } },
{ "type": "Feature", "id": "1503", "properties": { "date": "2022-12-12", "address": "Hennessy Apartments, 9/F, Flat C", "price": 5350000, "changes": "168%", "saleable_area(ft^2)": "548", "unit_rate": 9763, "district": "Wan Chai District", "Tower": null, "Flat": "C", "Phase": null, "Block": null, "Rental": false, "Public Housing": false, "floor": 9.0, "latitude": 22.27979445, "longitude": 114.18301738865668 }, "geometry": { "type": "Point", "coordinates": [ 114.18301738865668, 22.27979445 ] } },
{ "type": "Feature", "id": "1504", "properties": { "date": "2022-12-12", "address": "Oi Kwan Court, 13/F, Flat A", "price": 5300000, "changes": "266%", "saleable_area(ft^2)": "384", "unit_rate": 13802, "district": "Wan Chai District", "Tower": null, "Flat": "A", "Phase": null, "Block": null, "Rental": false, "Public Housing": false, "floor": 13.0, "latitude": 22.27592205, "longitude": 114.19363531137492 }, "geometry": { "type": "Point", "coordinates": [ 114.193635311374919, 22.27592205 ] } },
{ "type": "Feature", "id": "1507", "properties": { "date": "2022-12-11", "address": "Serenade, Tower 2, Lower Floor, Flat A", "price": 35000, "changes": "--", "saleable_area(ft^2)": "788", "unit_rate": 44, "district": "Wan Chai District", "Tower": "2", "Flat": "A", "Phase": null, "Block": null, "Rental": true, "Public Housing": false, "floor": 7.0, "latitude": 22.27665605, "longitude": 114.19543991171612 }, "geometry": { "type": "Point", "coordinates": [ 114.195439911716122, 22.27665605 ] } },
{ "type": "Feature", "id": "1509", "properties": { "date": "2022-12-10", "address": "Shing Loong Court, Middle Floor, Flat B", "price": 50000, "changes": "--", "saleable_area(ft^2)": "1,216", "unit_rate": 41, "district": "Wan Chai District", "Tower": null, "Flat": "B", "Phase": null, "Block": null, "Rental": true, "Public Housing": false, "floor": 13.0, "latitude": 22.2809253, "longitude": 114.19254118559802 }, "geometry": { "type": "Point", "coordinates": [ 114.192541185598017, 22.2809253 ] } },
{ "type": "Feature", "id": "1510", "properties": { "date": "2022-12-10", "address": "Hong Kong Mansion, Lower Floor, Flat D", "price": 10000, "changes": "--", "saleable_area(ft^2)": "609", "unit_rate": 16, "district": "Wan Chai District", "Tower": null, "Flat": "D", "Phase": null, "Block": null, "Rental": true, "Public Housing": false, "floor": 7.0, "latitude": 22.28007495, "longitude": 114.18555977749304 }, "geometry": { "type": "Point", "coordinates": [ 114.18555977749304, 22.28007495 ] } },
{ "type": "Feature", "id": "1520", "properties": { "date": "2022-12-08", "address": "Wing On Towers, Block 2, 6/F, Flat B", "price": 26880000, "changes": "18%", "saleable_area(ft^2)": "1,260", "unit_rate": 21333, "district": "Wan Chai District", "Tower": null, "Flat": "B", "Phase": null, "Block": "2", "Rental": false, "Public Housing": false, "floor": 6.0, "latitude": 22.26929825, "longitude": 114.19567683439186 }, "geometry": { "type": "Point", "coordinates": [ 114.195676834391861, 22.26929825 ] } },
{ "type": "Feature", "id": "1528", "properties": { "date": "2022-12-06", "address": "Serenade, Tower 1, 25/F, Flat D", "price": 17800000, "changes": "--", "saleable_area(ft^2)": "788", "unit_rate": 22589, "district": "Wan Chai District", "Tower": "1", "Flat": "D", "Phase": null, "Block": null, "Rental": false, "Public Housing": false, "floor": 25.0, "latitude": 22.27665605, "longitude": 114.19543991171612 }, "geometry": { "type": "Point", "coordinates": [ 114.195439911716122, 22.27665605 ] } },
{ "type": "Feature", "id": "1529", "properties": { "date": "2022-12-05", "address": "Park Haven, Lower Floor, Flat E", "price": 19500, "changes": "--", "saleable_area(ft^2)": "390", "unit_rate": 50, "district": "Wan Chai District", "Tower": null, "Flat": "E", "Phase": null, "Block": null, "Rental": true, "Public Housing": false, "floor": 7.0, "latitude": 22.2777189, "longitude": 114.1871914160196 }, "geometry": { "type": "Point", "coordinates": [ 114.187191416019601, 22.2777189 ] } },
{ "type": "Feature", "id": "1532", "properties": { "date": "2022-12-05", "address": "Man Tung Building, 1/F, Flat C", "price": 8750000, "changes": "72%", "saleable_area(ft^2)": "405", "unit_rate": 21605, "district": "Wan Chai District", "Tower": null, "Flat": "C", "Phase": null, "Block": null, "Rental": false, "Public Housing": false, "floor": 1.0, "latitude": 22.2772569, "longitude": 114.23012885 }, "geometry": { "type": "Point", "coordinates": [ 114.23012885, 22.2772569 ] } },
{ "type": "Feature", "id": "1533", "properties": { "date": "2022-12-05", "address": "Caroline Hill Court, 4/F, No. 15", "price": 6500000, "changes": "--", "saleable_area(ft^2)": "521", "unit_rate": 12476, "district": "Wan Chai District", "Tower": null, "Flat": null, "Phase": null, "Block": null, "Rental": false, "Public Housing": false, "floor": 4.0, "latitude": 22.2775871, "longitude": 114.18653239410725 }, "geometry": { "type": "Point", "coordinates": [ 114.186532394107246, 22.2775871 ] } },
{ "type": "Feature", "id": "1538", "properties": { "date": "2022-12-01", "address": "Viking Villas, Block C, Middle Floor, Flat 7", "price": 24000, "changes": "--", "saleable_area(ft^2)": "700", "unit_rate": 34, "district": "Wan Chai District", "Tower": null, "Flat": "7", "Phase": null, "Block": "C", "Rental": true, "Public Housing": false, "floor": 13.0, "latitude": 22.28557795, "longitude": 114.19441349045272 }, "geometry": { "type": "Point", "coordinates": [ 114.194413490452717, 22.28557795 ] } },
{ "type": "Feature", "id": "1539", "properties": { "date": "2022-12-01", "address": "Ronsdale Garden, Block 2, Middle Floor, Flat F", "price": 33000, "changes": "--", "saleable_area(ft^2)": "694", "unit_rate": 48, "district": "Wan Chai District", "Tower": null, "Flat": "F", "Phase": null, "Block": "2", "Rental": true, "Public Housing": false, "floor": 13.0, "latitude": 22.27495735, "longitude": 114.1956766432771 }, "geometry": { "type": "Point", "coordinates": [ 114.195676643277096, 22.27495735 ] } },
{ "type": "Feature", "id": "1540", "properties": { "date": "2022-12-01", "address": "Caroline Garden, Middle Floor, Flat A", "price": 30000, "changes": "--", "saleable_area(ft^2)": "798", "unit_rate": 38, "district": "Wan Chai District", "Tower": null, "Flat": "A", "Phase": null, "Block": null, "Rental": true, "Public Housing": false, "floor": 13.0, "latitude": 22.27566405, "longitude": 114.18584248830328 }, "geometry": { "type": "Point", "coordinates": [ 114.18584248830328, 22.27566405 ] } },
{ "type": "Feature", "id": "1553", "properties": { "date": "2022-11-29", "address": "Fly Dragon Terrace, 3/F, Flat C (No. 28)", "price": 20000000, "changes": "--", "saleable_area(ft^2)": "1,270", "unit_rate": 15748, "district": "Wan Chai District", "Tower": null, "Flat": "C", "Phase": null, "Block": null, "Rental": false, "Public Housing": false, "floor": 3.0, "latitude": 22.28353515, "longitude": 114.1936322046014 }, "geometry": { "type": "Point", "coordinates": [ 114.1936322046014, 22.28353515 ] } },
{ "type": "Feature", "id": "1564", "properties": { "date": "2022-11-24", "address": "Park Haven, Upper Floor, Flat B", "price": 33000, "changes": "--", "saleable_area(ft^2)": "580", "unit_rate": 57, "district": "Wan Chai District", "Tower": null, "Flat": "B", "Phase": null, "Block": null, "Rental": true, "Public Housing": false, "floor": 22.0, "latitude": 22.2777189, "longitude": 114.1871914160196 }, "geometry": { "type": "Point", "coordinates": [ 114.187191416019601, 22.2777189 ] } },
{ "type": "Feature", "id": "1571", "properties": { "date": "2022-11-20", "address": "Park Towers, Tower 1, Lower Floor, Flat D", "price": 47000, "changes": "--", "saleable_area(ft^2)": "998", "unit_rate": 47, "district": "Wan Chai District", "Tower": "1", "Flat": "D", "Phase": null, "Block": null, "Rental": true, "Public Housing": false, "floor": 7.0, "latitude": 22.28257685, "longitude": 114.1916623280402 }, "geometry": { "type": "Point", "coordinates": [ 114.191662328040195, 22.28257685 ] } },
{ "type": "Feature", "id": "1572", "properties": { "date": "2022-11-20", "address": "Jones Hive, Lower Floor, Flat D", "price": 18000, "changes": "--", "saleable_area(ft^2)": "333", "unit_rate": 54, "district": "Wan Chai District", "Tower": null, "Flat": "D", "Phase": null, "Block": null, "Rental": true, "Public Housing": false, "floor": 7.0, "latitude": 22.27826105, "longitude": 114.1911519 }, "geometry": { "type": "Point", "coordinates": [ 114.1911519, 22.27826105 ] } },
{ "type": "Feature", "id": "1573", "properties": { "date": "2022-11-19", "address": "Warrenwoods, Middle Floor, Flat E", "price": 15000, "changes": "--", "saleable_area(ft^2)": "272", "unit_rate": 55, "district": "Wan Chai District", "Tower": null, "Flat": "E", "Phase": null, "Block": null, "Rental": true, "Public Housing": false, "floor": 13.0, "latitude": 22.27811235, "longitude": 114.19164496807019 }, "geometry": { "type": "Point", "coordinates": [ 114.191644968070193, 22.27811235 ] } },
{ "type": "Feature", "id": "1575", "properties": { "date": "2022-11-18", "address": "The Consonance, Lower Floor, Flat E", "price": 16000, "changes": "--", "saleable_area(ft^2)": "265", "unit_rate": 60, "district": "Wan Chai District", "Tower": null, "Flat": "E", "Phase": null, "Block": null, "Rental": true, "Public Housing": false, "floor": 7.0, "latitude": 22.28622115, "longitude": 114.1920958 }, "geometry": { "type": "Point", "coordinates": [ 114.1920958, 22.28622115 ] } },
{ "type": "Feature", "id": "1576", "properties": { "date": "2022-11-18", "address": "Villa D' Arte, Lower Floor, Flat B", "price": 20000, "changes": "--", "saleable_area(ft^2)": "450", "unit_rate": 44, "district": "Wan Chai District", "Tower": null, "Flat": "B", "Phase": null, "Block": null, "Rental": true, "Public Housing": false, "floor": 7.0, "latitude": 22.27800715, "longitude": 114.19342123673854 }, "geometry": { "type": "Point", "coordinates": [ 114.193421236738544, 22.27800715 ] } },
{ "type": "Feature", "id": "1577", "properties": { "date": "2022-11-18", "address": "Po Foo Building, 11/F, Flat D", "price": 6000000, "changes": "--", "saleable_area(ft^2)": "389", "unit_rate": 15424, "district": "Wan Chai District", "Tower": null, "Flat": "D", "Phase": null, "Block": null, "Rental": false, "Public Housing": false, "floor": 11.0, "latitude": 22.27883265, "longitude": 114.18345612797393 }, "geometry": { "type": "Point", "coordinates": [ 114.183456127973926, 22.27883265 ] } },
{ "type": "Feature", "id": "1578", "properties": { "date": "2022-11-18", "address": "Hoi Deen Court, 5/F, Flat G", "price": 5910000, "changes": "119%", "saleable_area(ft^2)": "501", "unit_rate": 11796, "district": "Wan Chai District", "Tower": null, "Flat": "G", "Phase": null, "Block": null, "Rental": false, "Public Housing": false, "floor": 5.0, "latitude": 22.28183475, "longitude": 114.18362002692308 }, "geometry": { "type": "Point", "coordinates": [ 114.18362002692308, 22.28183475 ] } },
{ "type": "Feature", "id": "1581", "properties": { "date": "2022-11-17", "address": "The Warren, Lower Floor, Flat C", "price": 19000, "changes": "--", "saleable_area(ft^2)": "383", "unit_rate": 50, "district": "Wan Chai District", "Tower": null, "Flat": "C", "Phase": null, "Block": null, "Rental": true, "Public Housing": false, "floor": 7.0, "latitude": 22.2783989, "longitude": 114.1914292390064 }, "geometry": { "type": "Point", "coordinates": [ 114.191429239006396, 22.2783989 ] } },
{ "type": "Feature", "id": "1582", "properties": { "date": "2022-11-17", "address": "Dragon Rise, 24/F, Flat B", "price": 6000000, "changes": "49%", "saleable_area(ft^2)": "308", "unit_rate": 19481, "district": "Wan Chai District", "Tower": null, "Flat": "B", "Phase": null, "Block": null, "Rental": false, "Public Housing": false, "floor": 24.0, "latitude": 22.278915, "longitude": 114.18591893340108 }, "geometry": { "type": "Point", "coordinates": [ 114.185918933401084, 22.278915 ] } },
{ "type": "Feature", "id": "1584", "properties": { "date": "2022-11-17", "address": "Vincent Mansion, High Block, 23/F, Flat A", "price": 5500000, "changes": "-5%", "saleable_area(ft^2)": "307", "unit_rate": 17915, "district": "Wan Chai District", "Tower": null, "Flat": "A", "Phase": null, "Block": null, "Rental": false, "Public Housing": false, "floor": 23.0, "latitude": 22.2860038, "longitude": 114.19219685 }, "geometry": { "type": "Point", "coordinates": [ 114.19219685, 22.2860038 ] } },
{ "type": "Feature", "id": "1585", "properties": { "date": "2022-11-16", "address": "Chuang's-On-The-Park, 23/F, Flat A", "price": 9080000, "changes": "8%", "saleable_area(ft^2)": "530", "unit_rate": 17132, "district": "Wan Chai District", "Tower": null, "Flat": "A", "Phase": null, "Block": null, "Rental": false, "Public Housing": false, "floor": 23.0, "latitude": 22.2816298, "longitude": 114.19236292734377 }, "geometry": { "type": "Point", "coordinates": [ 114.192362927343765, 22.2816298 ] } },
{ "type": "Feature", "id": "1586", "properties": { "date": "2022-11-16", "address": "Shing Loong Court, 2/F, Flat A", "price": 19700000, "changes": "--", "saleable_area(ft^2)": "1,216", "unit_rate": 16201, "district": "Wan Chai District", "Tower": null, "Flat": "A", "Phase": null, "Block": null, "Rental": false, "Public Housing": false, "floor": 2.0, "latitude": 22.2809253, "longitude": 114.19254118559802 }, "geometry": { "type": "Point", "coordinates": [ 114.192541185598017, 22.2809253 ] } },
{ "type": "Feature", "id": "1589", "properties": { "date": "2022-11-15", "address": "Viking Villas, Block B, Lower Floor, Flat 12", "price": 28000, "changes": "--", "saleable_area(ft^2)": "700", "unit_rate": 40, "district": "Wan Chai District", "Tower": null, "Flat": "12", "Phase": null, "Block": "B", "Rental": true, "Public Housing": false, "floor": 7.0, "latitude": 22.28557795, "longitude": 114.19441349045272 }, "geometry": { "type": "Point", "coordinates": [ 114.194413490452717, 22.28557795 ] } },
{ "type": "Feature", "id": "1590", "properties": { "date": "2022-11-15", "address": "The Consonance, Middle Floor, Flat F", "price": 16000, "changes": "--", "saleable_area(ft^2)": "277", "unit_rate": 58, "district": "Wan Chai District", "Tower": null, "Flat": "F", "Phase": null, "Block": null, "Rental": true, "Public Housing": false, "floor": 13.0, "latitude": 22.28622115, "longitude": 114.1920958 }, "geometry": { "type": "Point", "coordinates": [ 114.1920958, 22.28622115 ] } },
{ "type": "Feature", "id": "1593", "properties": { "date": "2022-11-15", "address": "Park Haven, Upper Floor, Flat E", "price": 23000, "changes": "--", "saleable_area(ft^2)": "390", "unit_rate": 59, "district": "Wan Chai District", "Tower": null, "Flat": "E", "Phase": null, "Block": null, "Rental": true, "Public Housing": false, "floor": 22.0, "latitude": 22.2777189, "longitude": 114.1871914160196 }, "geometry": { "type": "Point", "coordinates": [ 114.187191416019601, 22.2777189 ] } },
{ "type": "Feature", "id": "1599", "properties": { "date": "2022-11-15", "address": "Pearl City Mansion, Block C, 30/F, Flat C3", "price": 8600000, "changes": "157%", "saleable_area(ft^2)": "493", "unit_rate": 17444, "district": "Wan Chai District", "Tower": null, "Flat": "C", "Phase": null, "Block": "C", "Rental": false, "Public Housing": false, "floor": 30.0, "latitude": 22.28087265, "longitude": 114.18590863400178 }, "geometry": { "type": "Point", "coordinates": [ 114.185908634001777, 22.28087265 ] } },
{ "type": "Feature", "id": "1600", "properties": { "date": "2022-11-15", "address": "543 Lockhart Road, 4/F, No. 543", "price": 6950000, "changes": "--", "saleable_area(ft^2)": "581", "unit_rate": 11962, "district": "Wan Chai District", "Tower": null, "Flat": null, "Phase": null, "Block": null, "Rental": false, "Public Housing": false, "floor": 4.0, "latitude": 22.2807685, "longitude": 114.1845055 }, "geometry": { "type": "Point", "coordinates": [ 114.1845055, 22.2807685 ] } },
{ "type": "Feature", "id": "1604", "properties": { "date": "2022-11-14", "address": "Tak Fai Building, 4/F, Flat B", "price": 5800000, "changes": "480%", "saleable_area(ft^2)": "578", "unit_rate": 10035, "district": "Wan Chai District", "Tower": null, "Flat": "B", "Phase": null, "Block": null, "Rental": false, "Public Housing": false, "floor": 4.0, "latitude": 22.2807219, "longitude": 114.18209063079119 }, "geometry": { "type": "Point", "coordinates": [ 114.182090630791194, 22.2807219 ] } },
{ "type": "Feature", "id": "1608", "properties": { "date": "2022-11-12", "address": "The Legend, Tower 5, Middle Floor, Flat A", "price": 42000, "changes": "--", "saleable_area(ft^2)": "867", "unit_rate": 48, "district": "Wan Chai District", "Tower": "5", "Flat": "A", "Phase": null, "Block": null, "Rental": true, "Public Housing": false, "floor": 13.0, "latitude": 22.2750745, "longitude": 114.1952050409956 }, "geometry": { "type": "Point", "coordinates": [ 114.195205040995603, 22.2750745 ] } },
{ "type": "Feature", "id": "1609", "properties": { "date": "2022-11-11", "address": "The Consonance, 29/F, Flat J", "price": 6590000, "changes": "--", "saleable_area(ft^2)": "196", "unit_rate": 33610, "district": "Wan Chai District", "Tower": null, "Flat": "J", "Phase": null, "Block": null, "Rental": false, "Public Housing": false, "floor": 29.0, "latitude": 22.28622115, "longitude": 114.1920958 }, "geometry": { "type": "Point", "coordinates": [ 114.1920958, 22.28622115 ] } },
{ "type": "Feature", "id": "1613", "properties": { "date": "2022-11-10", "address": "The First Mansion, 12/F, Flat B", "price": 7400000, "changes": "87%", "saleable_area(ft^2)": "322", "unit_rate": 22981, "district": "Wan Chai District", "Tower": null, "Flat": "B", "Phase": null, "Block": null, "Rental": false, "Public Housing": false, "floor": 12.0, "latitude": 22.27902505, "longitude": 114.1917551765706 }, "geometry": { "type": "Point", "coordinates": [ 114.191755176570595, 22.27902505 ] } },
{ "type": "Feature", "id": "1617", "properties": { "date": "2022-11-09", "address": "Lockhart House, Block A, 6/F, Flat 5", "price": 7340000, "changes": "201%", "saleable_area(ft^2)": "507", "unit_rate": 14477, "district": "Wan Chai District", "Tower": null, "Flat": "5", "Phase": null, "Block": "A", "Rental": false, "Public Housing": false, "floor": 6.0, "latitude": 22.2802991, "longitude": 114.18149273908526 }, "geometry": { "type": "Point", "coordinates": [ 114.181492739085257, 22.2802991 ] } },
{ "type": "Feature", "id": "1620", "properties": { "date": "2022-11-08", "address": "The Consonance, Middle Floor, Flat B", "price": 16000, "changes": "--", "saleable_area(ft^2)": "270", "unit_rate": 59, "district": "Wan Chai District", "Tower": null, "Flat": "B", "Phase": null, "Block": null, "Rental": true, "Public Housing": false, "floor": 13.0, "latitude": 22.28622115, "longitude": 114.1920958 }, "geometry": { "type": "Point", "coordinates": [ 114.1920958, 22.28622115 ] } },